lat,lon,STATEFP,COUNTYFP,county_fips,state,BUYER_DEA_NO,pharmacy,address,pills,link,BUYER_STATE,BUYER_COUNTY
30.8804015,-87.7845188,1,3,1003,AL,BR5156078,ALABAMA CVS PHARMACY,208 MCMEANS AVE   BAY MINETTE  AL 36507,1901530,https://www.washingtonpost.com/wp-stat/dea-pain-pill-database/bulk/pharmacy/AL-BR5156078.csv,AL,BALDWIN
30.8858628,-87.786709,1,3,1003,AL,BW4707139,WINN-DIXIE PHARMACY #571,710 MCMEANS AVE  BAY MINETTE  AL 36507,1481300,https://www.washingtonpost.com/wp-stat/dea-pain-pill-database/bulk/pharmacy/AL-BW4707139.csv,AL,BALDWIN
30.9045956,-87.7839039,1,3,1003,AL,BN5150141,NORTH BALDWIN FAMILY PHCY,2012 HAND AVE  BAY MINETTE  AL 36507,1308370,https://www.washingtonpost.com/wp-stat/dea-pain-pill-database/bulk/pharmacy/AL-BN5150141.csv,AL,BALDWIN
30.8837998,-87.7892833,1,3,1003,AL,FH2332233,HOMETOWN PHARMACY OF BAY MINETTE DBA BELL'S HOMETOWN PHARMACY,619 MCMEANS AVENUE  BAY MINETTE  AL 36507,326720,https://www.washingtonpost.com/wp-stat/dea-pain-pill-database/bulk/pharmacy/AL-FH2332233.csv,AL,BALDWIN
30.8825914,-87.7734201,1,3,1003,AL,AS0479421,STACEY'S DRUG STORE,109 COURTHOUSE SQUARE  BAY MINETTE  AL 36507,231570,https://www.washingtonpost.com/wp-stat/dea-pain-pill-database/bulk/pharmacy/AL-AS0479421.csv,AL,BALDWIN
30.8842115,-87.7871317,1,3,1003,AL,FM0569814,MEDICAP PHARMACY #8316,618 MCMEANS AVENUE  BAY MINETTE  AL 36507,132680,https://www.washingtonpost.com/wp-stat/dea-pain-pill-database/bulk/pharmacy/AL-FM0569814.csv,AL,BALDWIN
30.4200523,-87.6820744,1,3,1003,AL,FF3603708,FRED'S PHARMACY #2089,1200 N  MCKENZIE STREET  FOLEY  AL 36535,9400,https://www.washingtonpost.com/wp-stat/dea-pain-pill-database/bulk/pharmacy/AL-FF3603708.csv,AL,BALDWIN
30.4425344,-87.6843249,1,3,1003,AL,FP0535130,QUALITY RESPIRATORY QRC PHARMACY,14965 HWY 59 SUITE 101  FOLEY  AL 36535,2700,https://www.washingtonpost.com/wp-stat/dea-pain-pill-database/bulk/pharmacy/AL-FP0535130.csv,AL,BALDWIN
34.0812318,-86.5912309,1,9,1009,AL,FB0605812,BLOUNTSVILLE PHARMACY,69005 MAIN STREET  BLOUNTSVILLE  AL 35031,701900,https://www.washingtonpost.com/wp-stat/dea-pain-pill-database/bulk/pharmacy/AL-FB0605812.csv,AL,BLOUNT
34.0840843,-86.590502,1,9,1009,AL,AB0454176,BLOUNTSVILLE PHARMACY,P O  BOX 250 69005 MAIN ST  BLOUNTSVILLE  AL 35031,300200,https://www.washingtonpost.com/wp-stat/dea-pain-pill-database/bulk/pharmacy/AL-AB0454176.csv,AL,BLOUNT
32.8895296,-86.220784,1,37,1037,AL,AC7530428,CREW DRUG STORE,PO BOX 157 1 MAIN STREET  ROCKFORD  AL 35136,282970,https://www.washingtonpost.com/wp-stat/dea-pain-pill-database/bulk/pharmacy/AL-AC7530428.csv,AL,COOSA
32.8890686,-86.2199992,1,37,1037,AL,FC2539659,CREW'S DRUG STORE,9681 HWY 231  P O  BOX 157  ROCKFORD  AL 35136,73850,https://www.washingtonpost.com/wp-stat/dea-pain-pill-database/bulk/pharmacy/AL-FC2539659.csv,AL,COOSA
34.1504832,-86.8476209,1,43,1043,AL,BM3876868,MC SWAIN'S PHARMACY,1910 MAIN AVE SW  CULLMAN  AL 35055,2963210,https://www.washingtonpost.com/wp-stat/dea-pain-pill-database/bulk/pharmacy/AL-BM3876868.csv,AL,CULLMAN
34.1549869,-86.8382099,1,43,1043,AL,BW7177644,WELLS TURNER FAMILY PHARMACY,HOLLAND DRUG CO   INC  1704 CHEROKEE AVENUE SW  CULLMAN  AL 35055,1962550,https://www.washingtonpost.com/wp-stat/dea-pain-pill-database/bulk/pharmacy/AL-BW7177644.csv,AL,CULLMAN
34.162571,-86.8367027,1,43,1043,AL,BC4725202,CULLMAN DISCOUNT PHARMACY,1407 SECOND AVE   S W   CULLMAN  AL 35055,1888340,https://www.washingtonpost.com/wp-stat/dea-pain-pill-database/bulk/pharmacy/AL-BC4725202.csv,AL,CULLMAN
34.153269,-86.8478953,1,43,1043,AL,BE4870968,ECONO-MED,1824 MAIN AVENUE S W   CULLMAN  AL 35055,1556790,https://www.washingtonpost.com/wp-stat/dea-pain-pill-database/bulk/pharmacy/AL-BE4870968.csv,AL,CULLMAN
34.1615444,-86.8344916,1,43,1043,AL,AH8971043,RITE AID,SOUTH CULLMAN CENTER 1606 2ND AVENUE  S W   CULLMAN  AL 35055,1193200,https://www.washingtonpost.com/wp-stat/dea-pain-pill-database/bulk/pharmacy/AL-AH8971043.csv,AL,CULLMAN
34.1586724,-86.8340629,1,43,1043,AL,FW1007093,WALGREENS,1700 2ND AVENUE SOUTHWEST  CULLMAN  AL 35055,1095500,https://www.washingtonpost.com/wp-stat/dea-pain-pill-database/bulk/pharmacy/AL-FW1007093.csv,AL,CULLMAN
34.1585192,-86.8486206,1,43,1043,AL,BH9446560,HERITAGE PHARMACY,1701 MAIN AVE SW SUITE C  CULLMAN  AL 35055,988910,https://www.washingtonpost.com/wp-stat/dea-pain-pill-database/bulk/pharmacy/AL-BH9446560.csv,AL,CULLMAN
34.1615444,-86.8344916,1,43,1043,AL,BH2094299,RITE AID,715 CULLMAN SHOPPING CENTER  CULLMAN  AL 35055,943310,https://www.washingtonpost.com/wp-stat/dea-pain-pill-database/bulk/pharmacy/AL-BH2094299.csv,AL,CULLMAN
34.154669,-86.835213,1,43,1043,AL,AK8900020,K MART PHARMACY #9571,1731 2ND AVE S W  CULLMAN  AL 35055,579090,https://www.washingtonpost.com/wp-stat/dea-pain-pill-database/bulk/pharmacy/AL-AK8900020.csv,AL,CULLMAN
34.170637,-86.840877,1,43,1043,AL,BM4569476,MEDICAL ARTS APOTHECARY,124 7TH ST SW  CULLMAN  AL 35055,585650,https://www.washingtonpost.com/wp-stat/dea-pain-pill-database/bulk/pharmacy/AL-BM4569476.csv,AL,CULLMAN
34.1495662,-86.841485,1,43,1043,AL,BW5383271,WAL-MART PHARMACY 10-0670,626 OLIVE STREET SW  CULLMAN  AL 35055,2325690,https://www.washingtonpost.com/wp-stat/dea-pain-pill-database/bulk/pharmacy/AL-BW5383271.csv,AL,CULLMAN
31.0923253,-87.0620358,1,53,1053,AL,BF8025593,FRED'S PHARMACY #1536,802 FORREST AVE  EAST BREWTON  AL 36426,1980200,https://www.washingtonpost.com/wp-stat/dea-pain-pill-database/bulk/pharmacy/AL-BF8025593.csv,AL,ESCAMBIA
34.0237944,-86.0133133,1,55,1055,AL,FR1214345,ROBERTA WATTS MEDICAL CENTER PHARMACY,1020 TUSCALOOSA AVENUE  GADSDEN  AL 35901,49820,https://www.washingtonpost.com/wp-stat/dea-pain-pill-database/bulk/pharmacy/AL-FR1214345.csv,AL,ETOWAH
31.2127463,-85.3602114,1,69,1069,AL,BW5998351,WINN-DIXIE PHARMACY,1151 ROSS CLARK CIRCLE  DOTHAN  AL 36301,680420,https://www.washingtonpost.com/wp-stat/dea-pain-pill-database/bulk/pharmacy/AL-BW5998351.csv,AL,HOUSTON
31.1951384,-85.3719938,1,69,1069,AL,FN2464624,NORTHEAST PHARMACEUTICALS,134 PREVATT ROAD  DOTHAN  AL 36301,7300,https://www.washingtonpost.com/wp-stat/dea-pain-pill-database/bulk/pharmacy/AL-FN2464624.csv,AL,HOUSTON
34.799493,-86.1216231,1,71,1071,AL,BB9445479,BIG C DRUGS - SKYLINE,21549 AL HWY 79  SCOTTSBORO  AL 35768,816440,https://www.washingtonpost.com/wp-stat/dea-pain-pill-database/bulk/pharmacy/AL-BB9445479.csv,AL,JACKSON
33.4948908,-86.806499,1,73,1073,AL,BU9720853,UAB HIGHLANDS APOTHECARY,1201 11TH AVENUE SOUTH  BIRMINGHAM  AL 35205,986240,https://www.washingtonpost.com/wp-stat/dea-pain-pill-database/bulk/pharmacy/AL-BU9720853.csv,AL,JEFFERSON
33.4967014,-86.8037916,1,73,1073,AL,BR5156826,ALABAMA CVS PHARMACY,1431 11TH AVENUE SO   BIRMINGHAM  AL 35205,651200,https://www.washingtonpost.com/wp-stat/dea-pain-pill-database/bulk/pharmacy/AL-BR5156826.csv,AL,JEFFERSON
33.4948908,-86.806499,1,73,1073,AL,BH2869634,HLTH SOUTH MED CTR APOTHECARY,1201 11 AVE SO  BIRMINGHAM  AL 35205,31750,https://www.washingtonpost.com/wp-stat/dea-pain-pill-database/bulk/pharmacy/AL-BH2869634.csv,AL,JEFFERSON
33.4323029,-86.9177633,1,73,1073,AL,AJ0467971,J & J DISCOUNT PHARMACY,6405 AVENUE K  BESSEMER  AL 35020,122560,https://www.washingtonpost.com/wp-stat/dea-pain-pill-database/bulk/pharmacy/AL-AJ0467971.csv,AL,JEFFERSON
33.42842,-86.72879,1,73,1073,AL,BL9687988,LOWERY ASSOCIATES INC,4911 CAHABA RIVER ROAD SUITE 105   109  BIRMINGHAM  AL 35243,80290,https://www.washingtonpost.com/wp-stat/dea-pain-pill-database/bulk/pharmacy/AL-BL9687988.csv,AL,JEFFERSON
33.4328907,-86.7381385,1,73,1073,AL,FG2608175,GENTRY PHARMACY,4700 CAHABA RIVER RD  STE B  BIRMINGHAM  AL 35243,50530,https://www.washingtonpost.com/wp-stat/dea-pain-pill-database/bulk/pharmacy/AL-FG2608175.csv,AL,JEFFERSON
33.4164388,-86.8418618,1,73,1073,AL,BR5155432,ALABAMA CVS PHARMACY,2201 TYLER RD   HOOVER  AL 35226,1128300,https://www.washingtonpost.com/wp-stat/dea-pain-pill-database/bulk/pharmacy/AL-BR5155432.csv,AL,JEFFERSON
32.5713009,-85.4976024,1,81,1081,AL,BW5382914,WAL-MART PHARMACY 10-0356,1717 SOUTH COLLEGE STREET  AUBURN  AL 36830,516480,https://www.washingtonpost.com/wp-stat/dea-pain-pill-database/bulk/pharmacy/AL-BW5382914.csv,AL,LEE
32.5763561,-85.4964405,1,81,1081,AL,BW4336271,WINN-DIXIE PHARMACY #579,1617 S COLLEGE ST  AUBURN  AL 36832,282450,https://www.washingtonpost.com/wp-stat/dea-pain-pill-database/bulk/pharmacy/AL-BW4336271.csv,AL,LEE
34.332916,-86.503201,1,95,1095,AL,AH5497830,JONES DISCOUNT PHARMACY,1036 N  BRINDLEE MTN  PARKWAY  ARAB  AL 35016,2027800,https://www.washingtonpost.com/wp-stat/dea-pain-pill-database/bulk/pharmacy/AL-AH5497830.csv,AL,MARSHALL
34.3252906,-86.5024577,1,95,1095,AL,AP9051955,PARKWAY PHARMACY,606 BRINDLEE MTN PKWY NORTH  ARAB  AL 35016,1149480,https://www.washingtonpost.com/wp-stat/dea-pain-pill-database/bulk/pharmacy/AL-AP9051955.csv,AL,MARSHALL
30.682517,-88.0676818,1,97,1097,AL,BW7173242,WALGREENS,1320 GOVERNMENT ST  MOBILE  AL 36604,1678500,https://www.washingtonpost.com/wp-stat/dea-pain-pill-database/bulk/pharmacy/AL-BW7173242.csv,AL,MOBILE
30.6803851,-88.0752946,1,97,1097,AL,BW7710773,WINN DIXIE PHARMACY #1333,1550 GOVERNMENT STREET  MOBILE  AL 36604,730180,https://www.washingtonpost.com/wp-stat/dea-pain-pill-database/bulk/pharmacy/AL-BW7710773.csv,AL,MOBILE
30.6652564,-88.0561415,1,97,1097,AL,AL3471997,LADAS PHARMACY INC,1050 S BROAD ST  MOBILE  AL 36603,1035000,https://www.washingtonpost.com/wp-stat/dea-pain-pill-database/bulk/pharmacy/AL-AL3471997.csv,AL,MOBILE
30.683965,-88.124926,1,97,1097,AL,BW5383613,WAL-MART PHARMACY 10-0991,101 SOUTH BELTLINE HIGHWAY  MOBILE  AL 36606,1309500,https://www.washingtonpost.com/wp-stat/dea-pain-pill-database/bulk/pharmacy/AL-BW5383613.csv,AL,MOBILE
30.6885791,-88.1172639,1,97,1097,AL,BH2254821,RITE AID,3065 DAUPHIN STREET  MOBILE  AL 36606,1117120,https://www.washingtonpost.com/wp-stat/dea-pain-pill-database/bulk/pharmacy/AL-BH2254821.csv,AL,MOBILE
30.6789221,-88.1228849,1,97,1097,AL,BS7445706,SAM'S PHARMACY 10-8102,601 EAST I 65 SERVICE ROAD SOUTH  MOBILE  AL 36606,528970,https://www.washingtonpost.com/wp-stat/dea-pain-pill-database/bulk/pharmacy/AL-BS7445706.csv,AL,MOBILE
30.6824396,-88.1021725,1,97,1097,AL,BI4870956,"INFIRMARY HOME HLTH AGENCY, IN",2601 B EMOGENE STREET  MOBILE  AL 36606,18400,https://www.washingtonpost.com/wp-stat/dea-pain-pill-database/bulk/pharmacy/AL-BI4870956.csv,AL,MOBILE
30.6768907,-88.172776,1,97,1097,AL,FC2476047,C & R PHARMACY,4682 AIRPORT BLVD SUITE A  MOBILE  AL 36608,804900,https://www.washingtonpost.com/wp-stat/dea-pain-pill-database/bulk/pharmacy/AL-FC2476047.csv,AL,MOBILE
32.3085765,-86.3506694,1,101,1101,AL,BR5156965,ALABAMA CVS PHARMACY,4790 MOBILE HWY  MONTGOMERY  AL 36108,1321220,https://www.washingtonpost.com/wp-stat/dea-pain-pill-database/bulk/pharmacy/AL-BR5156965.csv,AL,MONTGOMERY
32.3104718,-86.3514646,1,101,1101,AL,BW3313854,"WINN DIXIE, DBA WINN-DIXIE PHARMACY",4724 MOBILE HWY  MONTGOMERY  AL 36108,452480,https://www.washingtonpost.com/wp-stat/dea-pain-pill-database/bulk/pharmacy/AL-BW3313854.csv,AL,MONTGOMERY
34.4453362,-86.9383303,1,103,1103,AL,AS0474356,BUY-RITE DRUGS,401 CORSBIE ST  NW P O BOX 217  HARTSELLE  AL 35640,1731410,https://www.washingtonpost.com/wp-stat/dea-pain-pill-database/bulk/pharmacy/AL-AS0474356.csv,AL,MORGAN
34.4406926,-86.9404237,1,103,1103,AL,BR5155026,ALABAMA CVS PHARMACY,240 HWY 31 SOUTHWEST SUITE  11  HARTSELLE  AL 35640,1387060,https://www.washingtonpost.com/wp-stat/dea-pain-pill-database/bulk/pharmacy/AL-BR5155026.csv,AL,MORGAN
34.4405177,-86.9433674,1,103,1103,AL,BK5332298,KROGER PHARMACY,241 HIGHWAY 31 SW SUITE 60  HARTSELLE  AL 35640,1227520,https://www.washingtonpost.com/wp-stat/dea-pain-pill-database/bulk/pharmacy/AL-BK5332298.csv,AL,MORGAN
34.443037,-86.9432339,1,103,1103,AL,FW0689135,WALGREENS,201 HIGHWAY 31 NW  HARTSELLE  AL 35640,1226300,https://www.washingtonpost.com/wp-stat/dea-pain-pill-database/bulk/pharmacy/AL-FW0689135.csv,AL,MORGAN
34.4405177,-86.9433674,1,103,1103,AL,BH2094314,RITE AID,241 HIGHWAY 31 SW STE 20  HARTSELLE  AL 35640,830020,https://www.washingtonpost.com/wp-stat/dea-pain-pill-database/bulk/pharmacy/AL-BH2094314.csv,AL,MORGAN
34.4453291,-86.937176,1,103,1103,AL,AF3177462,DUNLAP DRUG CO,302 PINE ST   NW  HARTSELLE  AL 35640,167520,https://www.washingtonpost.com/wp-stat/dea-pain-pill-database/bulk/pharmacy/AL-AF3177462.csv,AL,MORGAN
34.3850261,-86.9129998,1,103,1103,AL,AS4551619,SUMMERFORD DRUGS INC,4087 HIGHWAY 31 S W   FALKVILLE  AL 35622,400380,https://www.washingtonpost.com/wp-stat/dea-pain-pill-database/bulk/pharmacy/AL-AS4551619.csv,AL,MORGAN
33.1264604,-88.1481234,1,107,1107,AL,BR5156953,ALABAMA CVS PHARMACY,113 3RD STREET  ALICEVILLE  AL 35442,525320,https://www.washingtonpost.com/wp-stat/dea-pain-pill-database/bulk/pharmacy/AL-BR5156953.csv,AL,PICKENS
33.1273765,-88.1459054,1,107,1107,AL,AP9395004,GENTRY DRUGS,551 MEMORIAL PARKWAY EAST  ALICEVILLE  AL 35442,443230,https://www.washingtonpost.com/wp-stat/dea-pain-pill-database/bulk/pharmacy/AL-AP9395004.csv,AL,PICKENS
32.472473,-85.0085409,1,113,1113,AL,AF5809720,J & L MEDICAL INC,1108 13TH STREET  PHENIX CITY  AL 36867,983290,https://www.washingtonpost.com/wp-stat/dea-pain-pill-database/bulk/pharmacy/AL-AF5809720.csv,AL,RUSSELL
32.4724864,-85.0085297,1,113,1113,AL,FU2988256,U SAVE IT PHARMACY #18,1108 13TH STREET  PHENIX CITY  AL 36867,241900,https://www.washingtonpost.com/wp-stat/dea-pain-pill-database/bulk/pharmacy/AL-FU2988256.csv,AL,RUSSELL
33.3518854,-86.6117336,1,117,1117,AL,FS0052299,SNIDER'S DISCOUNT PHARMACY,15582 HWY 280 SUITE 100  CHELSEA  AL 35043,2052500,https://www.washingtonpost.com/wp-stat/dea-pain-pill-database/bulk/pharmacy/AL-FS0052299.csv,AL,SHELBY
33.3496746,-86.6277249,1,117,1117,AL,FW0730401,WALGREENS,16468 HIGHWAY 280  CHELSEA  AL 35043,1169930,https://www.washingtonpost.com/wp-stat/dea-pain-pill-database/bulk/pharmacy/AL-FW0730401.csv,AL,SHELBY
33.3491188,-86.631378,1,117,1117,AL,BC6901640,CHELSEA APOTHECARY,16712 U S  HWY 280  CHELSEA  AL 35043,882830,https://www.washingtonpost.com/wp-stat/dea-pain-pill-database/bulk/pharmacy/AL-BC6901640.csv,AL,SHELBY
33.353232,-86.6087409,1,117,1117,AL,FP2471477,PUBLIX ALABAMA,501 CHELSEA CROSSROADS  CHELSEA  AL 35043,52600,https://www.washingtonpost.com/wp-stat/dea-pain-pill-database/bulk/pharmacy/AL-FP2471477.csv,AL,SHELBY
32.5835837,-88.1872615,1,119,1119,AL,AT8898667,THE DRUG STORE CO INC,108 LAFAYETTE STREET P O  BOX 1246  LIVINGSTON  AL 35470,629081,https://www.washingtonpost.com/wp-stat/dea-pain-pill-database/bulk/pharmacy/AL-AT8898667.csv,AL,SUMTER
32.4886182,-88.2994015,1,119,1119,AL,AY0478556,YORK DRUG STORE,583 FOURTH AVENUE  YORK  AL 36925,1037190,https://www.washingtonpost.com/wp-stat/dea-pain-pill-database/bulk/pharmacy/AL-AY0478556.csv,AL,SUMTER
32.4887406,-88.299825,1,119,1119,AL,BY6065723,"YORK DRUG, LT",400 COUNTRY CLUB RD PO BOX 577  YORK  AL 36925,298700,https://www.washingtonpost.com/wp-stat/dea-pain-pill-database/bulk/pharmacy/AL-BY6065723.csv,AL,SUMTER
33.237361,-87.5524871,1,125,1125,AL,BW3575226,WINN-DIXIE,10 MCFARLAND BLVD  NORTHPORT  AL 35476,819010,https://www.washingtonpost.com/wp-stat/dea-pain-pill-database/bulk/pharmacy/AL-BW3575226.csv,AL,TUSCALOOSA
33.239634,-87.575238,1,125,1125,AL,BK2060060,K MART PHARMACY #3672,1700 MCFARLAND BLVD  NORTHPORT  AL 35476,619040,https://www.washingtonpost.com/wp-stat/dea-pain-pill-database/bulk/pharmacy/AL-BK2060060.csv,AL,TUSCALOOSA
33.2386812,-87.5616783,1,125,1125,AL,BF6571790,FOODMAX PHARMACY #76,BRUNO S INC  400 MCFARLAND BLVD   NORTHPORT  AL 35476,40100,https://www.washingtonpost.com/wp-stat/dea-pain-pill-database/bulk/pharmacy/AL-BF6571790.csv,AL,TUSCALOOSA
33.2609498,-87.3153964,1,125,1125,AL,FH0903422,MILLS PHARMACY AT BROOKWOOD,16114 HWY 216 SUITE A  BROOKWOOD  AL 35444,704480,https://www.washingtonpost.com/wp-stat/dea-pain-pill-database/bulk/pharmacy/AL-FH0903422.csv,AL,TUSCALOOSA
33.1651751,-87.5187189,1,125,1125,AL,BW5383396,WAL-MART PHARMACY 10-0715,1501 SKYLAND BLVD EAST  TUSCALOOSA  AL 35405,1220730,https://www.washingtonpost.com/wp-stat/dea-pain-pill-database/bulk/pharmacy/AL-BW5383396.csv,AL,TUSCALOOSA
33.1660867,-87.52042,1,125,1125,AL,FS3113608,SAM'S PHARMACY 10-6435,1401 SKYLAND BLVD  TUSCALOOSA  AL 35405,23200,https://www.washingtonpost.com/wp-stat/dea-pain-pill-database/bulk/pharmacy/AL-FS3113608.csv,AL,TUSCALOOSA
33.2068735,-87.4993509,1,125,1125,AL,AL0478924,RITE AID,2916 UNIVERSITY BLVD   E   TUSCALOOSA  AL 35404,518470,https://www.washingtonpost.com/wp-stat/dea-pain-pill-database/bulk/pharmacy/AL-AL0478924.csv,AL,TUSCALOOSA
34.1593179,-87.4150534,1,133,1133,AL,AG9104340,GATEWAY DISCOUNT DRUGS,P O  BOX 486 HWY 195 GATEWAY SHOPPING CENTER  DOUBLE SPRINGS  AL 35553,1221850,https://www.washingtonpost.com/wp-stat/dea-pain-pill-database/bulk/pharmacy/AL-AG9104340.csv,AL,WINSTON
34.1499077,-87.4031875,1,133,1133,AL,BH3897608,HARRISON DRUG,25372 HIGHWAY 195 PO BOX 505  DOUBLE SPRINGS  AL 35553,725000,https://www.washingtonpost.com/wp-stat/dea-pain-pill-database/bulk/pharmacy/AL-BH3897608.csv,AL,WINSTON
34.1593179,-87.4150534,1,133,1133,AL,FG2260937,GATEWAY DISCOUNT APOTHECARY,26289 HWY  195  DOUBLE SPRINGS  AL 35553,627700,https://www.washingtonpost.com/wp-stat/dea-pain-pill-database/bulk/pharmacy/AL-FG2260937.csv,AL,WINSTON
32.4319502,-87.0231473,1,47,1047,AL,FW0063913,WALGREENS,1111 HIGHLAND AVE  SELMA  AL 36703,753200,https://www.washingtonpost.com/wp-stat/dea-pain-pill-database/bulk/pharmacy/AL-FW0063913.csv,AL,DALLAS
32.4337533,-87.0236608,1,47,1047,AL,FA0604505,ALLIANCE PHARMACY,133 5 BROAD ST  SELMA  AL 36701,4400,https://www.washingtonpost.com/wp-stat/dea-pain-pill-database/bulk/pharmacy/AL-FA0604505.csv,AL,DALLAS
31.2680202,-85.4412647,1,69,1069,AL,BW5383219,WAL-MART PHARMACY 10-0604,4310 MONTGOMERY HWY  DOTHAN  AL 36303,1228000,https://www.washingtonpost.com/wp-stat/dea-pain-pill-database/bulk/pharmacy/AL-BW5383219.csv,AL,HOUSTON
31.2594,-85.4321573,1,69,1069,AL,BW4861705,WINN-DIXIE PHARMACY,1571 WESTGATE PARKWAY  DOTHAN  AL 36303,547900,https://www.washingtonpost.com/wp-stat/dea-pain-pill-database/bulk/pharmacy/AL-BW4861705.csv,AL,HOUSTON
30.2293795,-88.008114,1,3,1003,AL,BW8821779,WAL-MART PHARMACY 10-2748,170 FORT MORGAN RD  GULF SHORES  AL 36542,1077160,https://www.washingtonpost.com/wp-stat/dea-pain-pill-database/bulk/pharmacy/AL-BW8821779.csv,AL,BALDWIN
32.0887569,-88.2147274,1,23,1023,AL,AM2766446,MR DISCOUNT DRUGS OF BUTLER,604 EAST PUSHMATAHA STREET  BUTLER  AL 36904,1848320,https://www.washingtonpost.com/wp-stat/dea-pain-pill-database/bulk/pharmacy/AL-AM2766446.csv,AL,CHOCTAW
32.0902563,-88.2182558,1,23,1023,AL,AM4455297,WILLARD'S MEDICAL ARTS PHARM,313 E PUSHMATAHA ST  BUTLER  AL 36904,1677880,https://www.washingtonpost.com/wp-stat/dea-pain-pill-database/bulk/pharmacy/AL-AM4455297.csv,AL,CHOCTAW
32.0923601,-88.2220016,1,23,1023,AL,BF6981028,FRED'S PHARMACY #1081,307 NORTH MULBERRY AVE  BUTLER  AL 36904,140700,https://www.washingtonpost.com/wp-stat/dea-pain-pill-database/bulk/pharmacy/AL-BF6981028.csv,AL,CHOCTAW
31.7079201,-87.776325,1,25,1025,AL,AC0476514,CITY DRUG,123 JACKSON ST PO BOX 790  GROVE HILL  AL 36451,712140,https://www.washingtonpost.com/wp-stat/dea-pain-pill-database/bulk/pharmacy/AL-AC0476514.csv,AL,CLARKE
31.7091661,-87.7753202,1,25,1025,AL,BT5226976,THE MEDICINE CHEST,POST OFFICE BOX 69 126 MAIN STREET  GROVE HILL  AL 36451,378440,https://www.washingtonpost.com/wp-stat/dea-pain-pill-database/bulk/pharmacy/AL-BT5226976.csv,AL,CLARKE
34.2456495,-86.9604922,1,43,1043,AL,BW9881550,VILLAGE DISCOUNT DRUGS - WEST POINT,11784 HWY 157  VINEMONT  AL 35179,870500,https://www.washingtonpost.com/wp-stat/dea-pain-pill-database/bulk/pharmacy/AL-BW9881550.csv,AL,CULLMAN
34.2456495,-86.9604922,1,43,1043,AL,BW9075498,WEST POINT FAMILY PHARMACY,11784 AL HWY 157  VINEMONT  AL 35179,27300,https://www.washingtonpost.com/wp-stat/dea-pain-pill-database/bulk/pharmacy/AL-BW9075498.csv,AL,CULLMAN
31.4592896,-85.64152,1,45,1045,AL,BR5156129,ALABAMA CVS PHARMACY,176 ANDREWS AVE   OZARK  AL 36360,2376790,https://www.washingtonpost.com/wp-stat/dea-pain-pill-database/bulk/pharmacy/AL-BR5156129.csv,AL,DALE
31.4586164,-85.6387502,1,45,1045,AL,FC0166125,CROSBY DRUGS,127 SOUTH EAST AVE SUITE 1  OZARK  AL 36360,859760,https://www.washingtonpost.com/wp-stat/dea-pain-pill-database/bulk/pharmacy/AL-FC0166125.csv,AL,DALE
31.4586164,-85.6387502,1,45,1045,AL,AA6785995,ANDREWS DRUG CO,HARRIS JAMES COLLEY 127 SOUTH EAST AVENUE  OZARK  AL 36360,41100,https://www.washingtonpost.com/wp-stat/dea-pain-pill-database/bulk/pharmacy/AL-AA6785995.csv,AL,DALE
32.4078802,-87.0202958,1,47,1047,AL,AP0474306,PILCHER-MCBRYDE DRUG CO,101 BROAD ST  SELMA  AL 36701,756730,https://www.washingtonpost.com/wp-stat/dea-pain-pill-database/bulk/pharmacy/AL-AP0474306.csv,AL,DALLAS
32.4219991,-87.0245086,1,47,1047,AL,AB0453097,BROWN DRUG COMPANY,1631 BROAD STREET  SELMA  AL 36701,766590,https://www.washingtonpost.com/wp-stat/dea-pain-pill-database/bulk/pharmacy/AL-AB0453097.csv,AL,DALLAS
32.4078447,-87.0242694,1,47,1047,AL,AS0473669,SWIFT DRUG COMPANY INC,217 BROAD ST PO BOX 735  SELMA  AL 36701,476400,https://www.washingtonpost.com/wp-stat/dea-pain-pill-database/bulk/pharmacy/AL-AS0473669.csv,AL,DALLAS
32.4155319,-87.0317398,1,47,1047,AL,BD7436125,D&K PHARMACY (SELMA LOCATION),415 JEFF DAVIS AVE   SELMA  AL 36701,93230,https://www.washingtonpost.com/wp-stat/dea-pain-pill-database/bulk/pharmacy/AL-BD7436125.csv,AL,DALLAS
32.4307531,-87.0248659,1,47,1047,AL,BH3014711,RITE AID,"1018 HIGHLAND AVENUE, SELMA, AL 36701",104500,https://www.washingtonpost.com/wp-stat/dea-pain-pill-database/bulk/pharmacy/AL-BH3014711.csv,AL,DALLAS
32.4087,-87.0208,1,47,1047,AL,AC3164035,CARTER DRUG CO INCOR,133 BROAD STREET  PO BOX 949  SELMA  AL 36702,1608260,https://www.washingtonpost.com/wp-stat/dea-pain-pill-database/bulk/pharmacy/AL-AC3164035.csv,AL,DALLAS
34.0169033,-85.99616,1,55,1055,AL,FG0422446,GREGERSON'S PHARMACY,278 NORTH THIRD STREET PO BOX 1460  GADSDEN  AL 35901,3480920,https://www.washingtonpost.com/wp-stat/dea-pain-pill-database/bulk/pharmacy/AL-FG0422446.csv,AL,ETOWAH
34.0169033,-85.99616,1,55,1055,AL,AW9800435,GREGERSON'S PHARMACY,278 NORTH THIRD STREET PO BOX 1460  GADSDEN  AL 35901,564600,https://www.washingtonpost.com/wp-stat/dea-pain-pill-database/bulk/pharmacy/AL-AW9800435.csv,AL,ETOWAH
34.0469845,-85.965557,1,55,1055,AL,FR2498132,RAINS PHARMACY,2106 EWING AVENUE  GADSDEN  AL 35901,63420,https://www.washingtonpost.com/wp-stat/dea-pain-pill-database/bulk/pharmacy/AL-FR2498132.csv,AL,ETOWAH
34.0215507,-86.0455314,1,55,1055,AL,AJ7232882,JERRY'S DISCOUNT PHARMACY,300 WALL STREET  GADSDEN  AL 35904,2769140,https://www.washingtonpost.com/wp-stat/dea-pain-pill-database/bulk/pharmacy/AL-AJ7232882.csv,AL,ETOWAH
34.5131367,-87.7179928,1,59,1059,AL,FS1685758,SHOALS FAMILY PHARMACY GROUP DBA FAMILY PHARMACY OF RUSSELLVILLE,455 UNDERWOOD RD  RUSSELLVILLE  AL 35653,1210230,https://www.washingtonpost.com/wp-stat/dea-pain-pill-database/bulk/pharmacy/AL-FS1685758.csv,AL,FRANKLIN
34.4952902,-87.7283879,1,59,1059,AL,BW5382988,WAL-MART PHARMACY 10-0403,13675 HIGHWAY 43  RUSSELLVILLLE  AL 35653,1150600,https://www.washingtonpost.com/wp-stat/dea-pain-pill-database/bulk/pharmacy/AL-BW5382988.csv,AL,FRANKLIN
34.5131367,-87.7179928,1,59,1059,AL,AF2897176,GREG'S FAMILY PHARMACY,455 UNDERWOOD ROAD  RUSSELLVILLE  AL 35653,738410,https://www.washingtonpost.com/wp-stat/dea-pain-pill-database/bulk/pharmacy/AL-AF2897176.csv,AL,FRANKLIN
34.5096978,-87.7203502,1,59,1059,AL,FS1769035,SHOALS FAMILY PHARMACY GROUP DBA: HOMETOWN PHARMACY,609 GANDY ST  NE  RUSSELLVILLE  AL 35653,665230,https://www.washingtonpost.com/wp-stat/dea-pain-pill-database/bulk/pharmacy/AL-FS1769035.csv,AL,FRANKLIN
34.5096978,-87.7203502,1,59,1059,AL,FH0413978,HOMETOWN PHARMACY,609 GANDY ST NE  RUSSELLVILLE  AL 35653,474780,https://www.washingtonpost.com/wp-stat/dea-pain-pill-database/bulk/pharmacy/AL-FH0413978.csv,AL,FRANKLIN
34.5018099,-87.7318928,1,59,1059,AL,FS1704659,SHOALS FAMILY PHARMACY GROUP DBA THE DRUG SHOP OF RUSSELLVILLE,318 SOUTH JACKSON AVE  SUITE 1  RUSSELLVILLE  AL 35653,415290,https://www.washingtonpost.com/wp-stat/dea-pain-pill-database/bulk/pharmacy/AL-FS1704659.csv,AL,FRANKLIN
34.5041209,-87.7311327,1,59,1059,AL,BA4370425,THE DRUG SHOP,104 WEST MONTGOMERY  RUSSELLVILLE  AL 35653,373900,https://www.washingtonpost.com/wp-stat/dea-pain-pill-database/bulk/pharmacy/AL-BA4370425.csv,AL,FRANKLIN
34.5096978,-87.7203502,1,59,1059,AL,BM2917257,MEDICAL CENTER PHARMACY,609 GANDY ST NE  RUSSELLVILLE  AL 35653,341250,https://www.washingtonpost.com/wp-stat/dea-pain-pill-database/bulk/pharmacy/AL-BM2917257.csv,AL,FRANKLIN
31.2017938,-85.4347768,1,69,1069,AL,BJ9084675,JACKS DRUGS DOTHAN,1909 HONEYSUCKLE RD SOUTHWIND MEDICAL PARK  DOTHAN  AL 36305,5506320,https://www.washingtonpost.com/wp-stat/dea-pain-pill-database/bulk/pharmacy/AL-BJ9084675.csv,AL,HOUSTON
31.220797,-85.43387,1,69,1069,AL,BP9909637,PMO PHARMACY MANAGEMENT DOTHAN,3119 WESLEY  WAY SUITE 6  DOTHAN  AL 36305,12860,https://www.washingtonpost.com/wp-stat/dea-pain-pill-database/bulk/pharmacy/AL-BP9909637.csv,AL,HOUSTON
31.215916,-85.3645898,1,69,1069,AL,AB6315801,BOWEN PHARMACY,1906 FAIRVIEW AVE  DOTHAN  AL 36301,1912720,https://www.washingtonpost.com/wp-stat/dea-pain-pill-database/bulk/pharmacy/AL-AB6315801.csv,AL,HOUSTON
31.212721,-85.3626125,1,69,1069,AL,AC5557321,CIRCLE PHARMACY,2021 ALEXANDER DR  DOTHAN  AL 36301,1510710,https://www.washingtonpost.com/wp-stat/dea-pain-pill-database/bulk/pharmacy/AL-AC5557321.csv,AL,HOUSTON
31.197103,-85.3742628,1,69,1069,AL,FP2246088,PUBLIX ALABAMA,1620 ROSS CLARK CIRCLE  DOTHAN  AL 36301,176000,https://www.washingtonpost.com/wp-stat/dea-pain-pill-database/bulk/pharmacy/AL-FP2246088.csv,AL,HOUSTON
31.2127959,-85.3628344,1,69,1069,AL,BS3863140,SCOTT PHARMACUTICAL SERVICES,2019 ALEXANDER DRIVE SUITE 2  DOTHAN  AL 36301,167020,https://www.washingtonpost.com/wp-stat/dea-pain-pill-database/bulk/pharmacy/AL-BS3863140.csv,AL,HOUSTON
31.2167252,-85.3630676,1,69,1069,AL,FS1137149,SOUTHEAST ALABAMA MEDICAL CENTER,1108 ROSS CLARK CIRCLE  DOTHAN  AL 36301,135100,https://www.washingtonpost.com/wp-stat/dea-pain-pill-database/bulk/pharmacy/AL-FS1137149.csv,AL,HOUSTON
31.203702,-85.38462,1,69,1069,AL,BI8654370,INSTITUTIONAL PHARMACY SOLN,700 EAST COTTONWOOD RD  DOTHAN  AL 36301,3440,https://www.washingtonpost.com/wp-stat/dea-pain-pill-database/bulk/pharmacy/AL-BI8654370.csv,AL,HOUSTON
33.5822547,-86.7705833,1,73,1073,AL,AR1935420,R D R CORPORATION,1152 EAST LAKE BLVD  TARRANT  AL 35217,1712420,https://www.washingtonpost.com/wp-stat/dea-pain-pill-database/bulk/pharmacy/AL-AR1935420.csv,AL,JEFFERSON
33.5711214,-86.7840287,1,73,1073,AL,AB0476730,BURNS PHARMACY INC,541 JACKSON BOULEVARD  TARRANT  AL 35217,1118820,https://www.washingtonpost.com/wp-stat/dea-pain-pill-database/bulk/pharmacy/AL-AB0476730.csv,AL,JEFFERSON
33.5711214,-86.7840287,1,73,1073,AL,FF2390110,FRED'S PHARMACY #3878,541 JACKSON BLVD   TARRANT  AL 35217,671730,https://www.washingtonpost.com/wp-stat/dea-pain-pill-database/bulk/pharmacy/AL-FF2390110.csv,AL,JEFFERSON
33.6464177,-86.6833657,1,73,1073,AL,BW6079582,WALGREENS,2301 CENTER POINT PKWY  BIRMINGHAM  AL 35215,2319620,https://www.washingtonpost.com/wp-stat/dea-pain-pill-database/bulk/pharmacy/AL-BW6079582.csv,AL,JEFFERSON
33.652417,-86.6496642,1,73,1073,AL,BW4392647,WINN-DIXIE PHARMACY #574,2402 OLD SPRINGVILLE ROAD  BIRMINGHAM  AL 35215,976100,https://www.washingtonpost.com/wp-stat/dea-pain-pill-database/bulk/pharmacy/AL-BW4392647.csv,AL,JEFFERSON
33.6534238,-86.649368,1,73,1073,AL,BH3898357,RITE AID,"2264 BRREWSTER RD, BIRMINGHAM, AL 35235",114500,https://www.washingtonpost.com/wp-stat/dea-pain-pill-database/bulk/pharmacy/AL-BH3898357.csv,AL,JEFFERSON
33.5680969,-86.8975329,1,73,1073,AL,BW6235116,WALGREENS,1551 FORESTDALE BLVD  FORESTDALE  AL 35214,2597800,https://www.washingtonpost.com/wp-stat/dea-pain-pill-database/bulk/pharmacy/AL-BW6235116.csv,AL,JEFFERSON
33.3992977,-86.8046156,1,73,1073,AL,BR5764306,RITE AID,1615 MONTGOMERY HIGHWAY  HOOVER  AL 35216,721820,https://www.washingtonpost.com/wp-stat/dea-pain-pill-database/bulk/pharmacy/AL-BR5764306.csv,AL,JEFFERSON
33.393149,-86.7960093,1,73,1073,AL,BD5662867,FREDS PHARMACY #1841,3317 LORNA ROAD  HOOVER  AL 35216,1150000,https://www.washingtonpost.com/wp-stat/dea-pain-pill-database/bulk/pharmacy/AL-BD5662867.csv,AL,JEFFERSON
33.4043054,-86.8053219,1,73,1073,AL,AB2207012,BRUNO'S FOOD AND PHARMACY #9,1561 MONTGOMERY HWY  HOOVER  AL 35216,292560,https://www.washingtonpost.com/wp-stat/dea-pain-pill-database/bulk/pharmacy/AL-AB2207012.csv,AL,JEFFERSON
33.4000269,-86.8025123,1,73,1073,AL,FL0555079,LAFARMACIA/PHARMACY,3133 LORNA RD SUITE 102  HOOVER  AL 35216,9730,https://www.washingtonpost.com/wp-stat/dea-pain-pill-database/bulk/pharmacy/AL-FL0555079.csv,AL,JEFFERSON
33.3697092,-86.8001593,1,73,1073,AL,BR5154795,ALABAMA CVS PHARMACY,1881 CHACE DR   HOOVER  AL 35244,1029420,https://www.washingtonpost.com/wp-stat/dea-pain-pill-database/bulk/pharmacy/AL-BR5154795.csv,AL,JEFFERSON
33.3782129,-86.8121443,1,73,1073,AL,BC8574697,COSTCO WHOLESALE CORPORATION,3650 GALLERIA CIRCLE  HOOVER  AL 35244,661960,https://www.washingtonpost.com/wp-stat/dea-pain-pill-database/bulk/pharmacy/AL-BC8574697.csv,AL,JEFFERSON
33.3736816,-86.8087447,1,73,1073,AL,BS7311690,SAM'S PHARMACY 10-4724,3053 JOHNS HAWKINS PARKWAY  HOOVER  AL 35244,396100,https://www.washingtonpost.com/wp-stat/dea-pain-pill-database/bulk/pharmacy/AL-BS7311690.csv,AL,JEFFERSON
34.808924,-87.6657227,1,77,1077,AL,AM7823897,MILNER-RUSHING DRUG,869 FLORENCE BLVD  FLORENCE  AL 35630,1289400,https://www.washingtonpost.com/wp-stat/dea-pain-pill-database/bulk/pharmacy/AL-AM7823897.csv,AL,LAUDERDALE
32.6522602,-85.3789733,1,81,1081,AL,FJ1782691,JERKINS INC BUBBA'S MEDICINE SHOP,512 2ND AVE  OPELIKA  AL 36801,1090850,https://www.washingtonpost.com/wp-stat/dea-pain-pill-database/bulk/pharmacy/AL-FJ1782691.csv,AL,LEE
32.6522602,-85.3789733,1,81,1081,AL,AM6944361,BUBBA'S MEDICINE SHOP,YOUNG WILLIAM MAURY 512 2ND AVENUE  OPELIKA  AL 36801,1027100,https://www.washingtonpost.com/wp-stat/dea-pain-pill-database/bulk/pharmacy/AL-AM6944361.csv,AL,LEE
32.6387454,-85.39666,1,81,1081,AL,AT3472747,THOMAS PHARMACY INC,1713 PEPPERELL PKWY  OPELIKA  AL 36801,842810,https://www.washingtonpost.com/wp-stat/dea-pain-pill-database/bulk/pharmacy/AL-AT3472747.csv,AL,LEE
32.6423722,-85.390429,1,81,1081,AL,BK0801337,KROGER PHARACY #309,1515 A 2ND AVE  OPELIKA  AL 36801,76230,https://www.washingtonpost.com/wp-stat/dea-pain-pill-database/bulk/pharmacy/AL-BK0801337.csv,AL,LEE
32.652329,-85.3793464,1,81,1081,AL,BB8765109,BUBBAS PHARMACEUTICAL CARE IN,207 NORTH 6TH ST  OPELIKA  AL 36801,44230,https://www.washingtonpost.com/wp-stat/dea-pain-pill-database/bulk/pharmacy/AL-BB8765109.csv,AL,LEE
34.9914796,-86.846239,1,83,1083,AL,AJ0480690,JONES DRUG STORE,30508 ARDMORE AVENUE P O  BOX 429  ARDMORE  AL 35739,1829290,https://www.washingtonpost.com/wp-stat/dea-pain-pill-database/bulk/pharmacy/AL-AJ0480690.csv,AL,LIMESTONE
34.9832866,-86.8457979,1,83,1083,AL,BP4646216,PAYLESS PHARMACY AT FREDS,29930 ARDMORE AVE  ARDMORE  AL 35739,1243640,https://www.washingtonpost.com/wp-stat/dea-pain-pill-database/bulk/pharmacy/AL-BP4646216.csv,AL,LIMESTONE
34.7884147,-86.9748102,1,83,1083,AL,BF9339347,SOUTHERN FAMILY MARKET #157,625 ATHENS TOWN CENTER  ATHENS  AL 35611,394000,https://www.washingtonpost.com/wp-stat/dea-pain-pill-database/bulk/pharmacy/AL-BF9339347.csv,AL,LIMESTONE
32.1845359,-86.5766966,1,85,1085,AL,BD8565028,PARKS PHARMACY,225 HAYNEVILLE PLAZA  HAYNEVILLE  AL 36040,514640,https://www.washingtonpost.com/wp-stat/dea-pain-pill-database/bulk/pharmacy/AL-BD8565028.csv,AL,LOWNDES
32.1833769,-86.5811325,1,85,1085,AL,AF2586735,FOSTER DRUG CO INC,12 LAFAYETTE ST  HAYNEVILLE  AL 36040,187310,https://www.washingtonpost.com/wp-stat/dea-pain-pill-database/bulk/pharmacy/AL-AF2586735.csv,AL,LOWNDES
34.6929062,-86.5660608,1,89,1089,AL,BP5058501,PUBLIX ALABAMA,4851 WHITESBURG DRIVE SE SUITE B  HUNTSVILLE  AL 35802,689020,https://www.washingtonpost.com/wp-stat/dea-pain-pill-database/bulk/pharmacy/AL-BP5058501.csv,AL,MADISON
34.6964881,-86.5675411,1,89,1089,AL,FS1360798,SPORTSMED PHARMACY,4715 WHITESBURG DR   HUNTSVILLE  AL 35802,416190,https://www.washingtonpost.com/wp-stat/dea-pain-pill-database/bulk/pharmacy/AL-FS1360798.csv,AL,MADISON
34.8504292,-86.7153103,1,89,1089,AL,BS6576788,SUR-SAV PHARMACY,6046 HIGHWAY 53  HARVEST  AL 35749,2363810,https://www.washingtonpost.com/wp-stat/dea-pain-pill-database/bulk/pharmacy/AL-BS6576788.csv,AL,MADISON
34.8463845,-86.710826,1,89,1089,AL,FP0972364,PUBLIX ALABAMA,5850 HIGHWAY 53  HARVEST  AL 35749,351300,https://www.washingtonpost.com/wp-stat/dea-pain-pill-database/bulk/pharmacy/AL-FP0972364.csv,AL,MADISON
34.3450406,-86.3041158,1,95,1095,AL,BR5155951,ALABAMA CVS PHARMACY,1445 GUNTER AVENUE  GUNTERSVILLE  AL 35976,2345520,https://www.washingtonpost.com/wp-stat/dea-pain-pill-database/bulk/pharmacy/AL-BR5155951.csv,AL,MARSHALL
34.299367,-86.2790262,1,95,1095,AL,BW5383295,WAL-MART PHARMACY 10-0681,11697 U S  HWY 431  GUNTERSVILLE  AL 35976,1744440,https://www.washingtonpost.com/wp-stat/dea-pain-pill-database/bulk/pharmacy/AL-BW5383295.csv,AL,MARSHALL
34.3381453,-86.3123234,1,95,1095,AL,AG5497981,GRIFFITH DISCOUNT DRUGS INC,2011 GUNTER AVE  GUNTERSVILLE  AL 35976,214350,https://www.washingtonpost.com/wp-stat/dea-pain-pill-database/bulk/pharmacy/AL-AG5497981.csv,AL,MARSHALL
30.6909084,-88.0886259,1,97,1097,AL,BK0702301,RITE AID,2011 SPRINGHILL AVENUE  MOBILE  AL 36607,837530,https://www.washingtonpost.com/wp-stat/dea-pain-pill-database/bulk/pharmacy/AL-BK0702301.csv,AL,MOBILE
30.6946322,-88.0800656,1,97,1097,AL,FI2967480,IHRX4U,1 MOBILE INFIRMARY CIRCLE PO BOX 2226  MOBILE  AL 36607,37810,https://www.washingtonpost.com/wp-stat/dea-pain-pill-database/bulk/pharmacy/AL-FI2967480.csv,AL,MOBILE
30.6537389,-88.1394326,1,97,1097,AL,BC9508221,ALABAMA CVS PHARMACY,3932 COTTAGE HILL RD   MOBILE  AL 36609,1860820,https://www.washingtonpost.com/wp-stat/dea-pain-pill-database/bulk/pharmacy/AL-BC9508221.csv,AL,MOBILE
30.6774542,-88.190062,1,97,1097,AL,FW0568076,WALGREENS,6395 AIRPORT BLVD  MOBILE  AL 36608,963330,https://www.washingtonpost.com/wp-stat/dea-pain-pill-database/bulk/pharmacy/AL-FW0568076.csv,AL,MOBILE
30.6626067,-88.1887338,1,97,1097,AL,BW5459587,WINN-DIXIE PHARMACY,6300 GRELOT ROAD  MOBILE  AL 36609,624750,https://www.washingtonpost.com/wp-stat/dea-pain-pill-database/bulk/pharmacy/AL-BW5459587.csv,AL,MOBILE
30.6741589,-88.1718455,1,97,1097,AL,BB4776386,BRUNO'S PHARMACY #310,BRUNO S  INC 306 SOUTH UNIVERSITY BLVD  MOBILE  AL 36609,271990,https://www.washingtonpost.com/wp-stat/dea-pain-pill-database/bulk/pharmacy/AL-BB4776386.csv,AL,MOBILE
30.6742298,-88.1719761,1,97,1097,AL,FB1376715,BRUNO'S FOOD & PHARMACY #310,306 SOUTH UNIVERSITY BLVD  MOBILE  AL 36609,242460,https://www.washingtonpost.com/wp-stat/dea-pain-pill-database/bulk/pharmacy/AL-FB1376715.csv,AL,MOBILE
32.3264017,-86.2640283,1,101,1101,AL,BH2254756,RITE AID,2300 EAST SOUTH BOULEVARD  MONTGOMERY  AL 36116,339010,https://www.washingtonpost.com/wp-stat/dea-pain-pill-database/bulk/pharmacy/AL-BH2254756.csv,AL,MONTGOMERY
33.314573,-85.4841041,1,111,1111,AL,AH7428154,H & M DRUG INC,17216 HIGHWAY 431 BOX 289  WEDOWEE  AL 36278,1910860,https://www.washingtonpost.com/wp-stat/dea-pain-pill-database/bulk/pharmacy/AL-AH7428154.csv,AL,RANDOLPH
33.3121996,-85.4835643,1,111,1111,AL,FL3079628,LAKESIDE PHARMACY OF ALABAMA,17054 HWY 431 P O  BOX  10  WEDOWEE  AL 36278,56300,https://www.washingtonpost.com/wp-stat/dea-pain-pill-database/bulk/pharmacy/AL-FL3079628.csv,AL,RANDOLPH
33.5832795,-86.2780586,1,115,1115,AL,AT1063938,NATIONAL MEDICINE CENTER,608 MARTIN STREET  SOUTH  PELL CITY  AL 35128,685430,https://www.washingtonpost.com/wp-stat/dea-pain-pill-database/bulk/pharmacy/AL-AT1063938.csv,AL,SAINT CLAIR
33.5637869,-86.2677569,1,115,1115,AL,FP2771485,PUBLIX ALABAMA,2040 MARTIN STREET SOUTH  PELL CITY  AL 35128,93000,https://www.washingtonpost.com/wp-stat/dea-pain-pill-database/bulk/pharmacy/AL-FP2771485.csv,AL,SAINT CLAIR
33.5819998,-86.2765219,1,115,1115,AL,FJ2177435,J'S PHARMACY,760 MARTIN ST SOUTH  A  PELL CITY  AL 35128,529970,https://www.washingtonpost.com/wp-stat/dea-pain-pill-database/bulk/pharmacy/AL-FJ2177435.csv,AL,SAINT CLAIR
33.2187627,-86.8255249,1,117,1117,AL,FB2230554,BROOKLERE PHARMACY,205 BUCK CREEK PLAZA  ALABASTER  AL 35007,208820,https://www.washingtonpost.com/wp-stat/dea-pain-pill-database/bulk/pharmacy/AL-FB2230554.csv,AL,SHELBY
33.1677996,-86.2553405,1,121,1121,AL,BM8263080,MARBLE CITY PHARMACY,264 WEST FT  WILLAMS STREET  SYLACAUGA  AL 35150,3894600,https://www.washingtonpost.com/wp-stat/dea-pain-pill-database/bulk/pharmacy/AL-BM8263080.csv,AL,TALLADEGA
33.1675572,-86.2501826,1,121,1121,AL,BR5155456,ALABAMA CVS PHARMACY,2 N  BROADWAY AVE   SYLACAUGA  AL 35150,2182760,https://www.washingtonpost.com/wp-stat/dea-pain-pill-database/bulk/pharmacy/AL-BR5155456.csv,AL,TALLADEGA
33.1669676,-86.2568481,1,121,1121,AL,FF1408079,FORT WILLIAMS PHARMACY,401 WEST FORT WILLIAMS STREET  SYLACAUGA  AL 35150,1683730,https://www.washingtonpost.com/wp-stat/dea-pain-pill-database/bulk/pharmacy/AL-FF1408079.csv,AL,TALLADEGA
33.1677157,-86.2527519,1,121,1121,AL,FW0131730,WALGREENS,100 W FT WILLIAMS ST  SYLACAUGA  AL 35150,1370300,https://www.washingtonpost.com/wp-stat/dea-pain-pill-database/bulk/pharmacy/AL-FW0131730.csv,AL,TALLADEGA
33.1780211,-86.2505672,1,121,1121,AL,AM0484078,DIXIE DRUG CO,800 N BROADWAY P O  BOX 72  SYLACAUGA  AL 35150,1207880,https://www.washingtonpost.com/wp-stat/dea-pain-pill-database/bulk/pharmacy/AL-AM0484078.csv,AL,TALLADEGA
33.1708852,-86.2506289,1,121,1121,AL,AP6463082,PALACE DRUG CO,216 N BROADWAY  SYLACAUGA  AL 35150,1158050,https://www.washingtonpost.com/wp-stat/dea-pain-pill-database/bulk/pharmacy/AL-AP6463082.csv,AL,TALLADEGA
33.167683,-86.2514523,1,121,1121,AL,AH5643855,RITE AID,1 NORTH BROADWAY AVENUE  SYLACAUGA  AL 35150,762090,https://www.washingtonpost.com/wp-stat/dea-pain-pill-database/bulk/pharmacy/AL-AH5643855.csv,AL,TALLADEGA
33.2713637,-87.5961867,1,125,1125,AL,BS7685247,SENIOR CARE PHARMACY,4373 NORTHCREEK BLVD  NORTHPORT  AL 35473,10290310,https://www.washingtonpost.com/wp-stat/dea-pain-pill-database/bulk/pharmacy/AL-BS7685247.csv,AL,TUSCALOOSA
33.239902,-87.5770829,1,125,1125,AL,BR5156888,ALABAMA CVS PHARMACY,1910 MCFARLAND BOULEVARD  NORTHPORT  AL 35476,2745040,https://www.washingtonpost.com/wp-stat/dea-pain-pill-database/bulk/pharmacy/AL-BR5156888.csv,AL,TUSCALOOSA
33.3061646,-87.6003537,1,125,1125,AL,FA0242812,ALABAMA CVS PHARMACY,4280 MITT LARY RD   NORTHPORT  AL 35475,1326610,https://www.washingtonpost.com/wp-stat/dea-pain-pill-database/bulk/pharmacy/AL-FA0242812.csv,AL,TUSCALOOSA
33.2411379,-87.5787586,1,125,1125,AL,AH0478873,RITE AID,2300 MCFARLAND BLVD  NORTHPORT  AL 35476,950590,https://www.washingtonpost.com/wp-stat/dea-pain-pill-database/bulk/pharmacy/AL-AH0478873.csv,AL,TUSCALOOSA
33.2411379,-87.5787586,1,125,1125,AL,BP8686632,PUBLIX ALABAMA,2300 MCFARLAND BLVD  NORTHPORT  AL 35476,778400,https://www.washingtonpost.com/wp-stat/dea-pain-pill-database/bulk/pharmacy/AL-BP8686632.csv,AL,TUSCALOOSA
33.1884623,-87.5269292,1,125,1125,AL,AH5444827,RITE AID,2360 MCFARLAND BLVD EAST  TUSCALOOSA  AL 35404,708840,https://www.washingtonpost.com/wp-stat/dea-pain-pill-database/bulk/pharmacy/AL-AH5444827.csv,AL,TUSCALOOSA
33.1982209,-87.5397979,1,125,1125,AL,AH0468048,H&W DRUGS EAST INC,315 EAST 15 STREET  TUSCALOOSA  AL 35401,431660,https://www.washingtonpost.com/wp-stat/dea-pain-pill-database/bulk/pharmacy/AL-AH0468048.csv,AL,TUSCALOOSA
33.1938782,-87.5287476,1,125,1125,AL,AM2516841,THE PHARMACY AT MIDTOWN,1800 MCFARLAND BLVD EAST SUITE 334  TUSCALOOSA  AL 35404,231320,https://www.washingtonpost.com/wp-stat/dea-pain-pill-database/bulk/pharmacy/AL-AM2516841.csv,AL,TUSCALOOSA
33.1682294,-87.5288829,1,125,1125,AL,BH0750530,RITE AID,600 SKYLAND BLVD E  TUSCALOOSA  AL 35405,1202160,https://www.washingtonpost.com/wp-stat/dea-pain-pill-database/bulk/pharmacy/AL-BH0750530.csv,AL,TUSCALOOSA
33.6552988,-85.8272657,1,15,1015,AL,BW9589194,WALGREENS,800 QUINTARD AVE  ANNISTON  AL 36201,2677150,https://www.washingtonpost.com/wp-stat/dea-pain-pill-database/bulk/pharmacy/AL-BW9589194.csv,AL,CALHOUN
33.6556816,-85.8308659,1,15,1015,AL,BW3833375,WINN-DIXIE,800 NOBLE ST  ANNISTON  AL 36201,1964000,https://www.washingtonpost.com/wp-stat/dea-pain-pill-database/bulk/pharmacy/AL-BW3833375.csv,AL,CALHOUN
33.6633299,-85.8274257,1,15,1015,AL,BH2094388,RITE AID,1430 QUINTARD AVENUE  ANNISTON  AL 36201,1564230,https://www.washingtonpost.com/wp-stat/dea-pain-pill-database/bulk/pharmacy/AL-BH2094388.csv,AL,CALHOUN
33.6618089,-85.8301859,1,15,1015,AL,BA9214521,ANNISTON QUALITY HEALTHCARE,1316 NOBLE STREET SUITE 1 C  ANNISTON  AL 36201,369830,https://www.washingtonpost.com/wp-stat/dea-pain-pill-database/bulk/pharmacy/AL-BA9214521.csv,AL,CALHOUN
32.4337583,-87.0128512,1,47,1047,AL,BW5383346,WAL-MART PHARMACY 10-0700,1501 HWY 14 EAST  SELMA  AL 36703,746730,https://www.washingtonpost.com/wp-stat/dea-pain-pill-database/bulk/pharmacy/AL-BW5383346.csv,AL,DALLAS
32.5044762,-86.9904424,1,47,1047,AL,BV9681190,VALLEY GRANDE PHARMACY,7171 ALABAMA HIGHWAY 22 NORTH  VALLEY GRANDE  AL 36701,482320,https://www.washingtonpost.com/wp-stat/dea-pain-pill-database/bulk/pharmacy/AL-BV9681190.csv,AL,DALLAS
34.6724115,-86.022401,1,71,1071,AL,BS9082087,SCOTTSBORO FAMILY PHARMACY,201 VETERANS DR SUITE 101  SCOTTSBORO  AL 35768,5951590,https://www.washingtonpost.com/wp-stat/dea-pain-pill-database/bulk/pharmacy/AL-BS9082087.csv,AL,JACKSON
34.6663575,-86.0359338,1,71,1071,AL,AC1200372,BIG 'C' DISCOUNT DRUGS,106 PARKS AVENUE  SCOTTSBORO  AL 35768,3709260,https://www.washingtonpost.com/wp-stat/dea-pain-pill-database/bulk/pharmacy/AL-AC1200372.csv,AL,JACKSON
34.6653824,-86.0344356,1,71,1071,AL,BS8992124,ALABAMA CVS PHARMACY,801 S  BROAD ST   SCOTTSBORO  AL 35768,1981100,https://www.washingtonpost.com/wp-stat/dea-pain-pill-database/bulk/pharmacy/AL-BS8992124.csv,AL,JACKSON
33.5084556,-86.799574,1,73,1073,AL,AH0483230,HARBIN PHARMACY,521 RICHARD ARRINGTON BLVD S 521 SOUTH 21ST STREET  BIRMINGHAM  AL 35233,2215370,https://www.washingtonpost.com/wp-stat/dea-pain-pill-database/bulk/pharmacy/AL-AH0483230.csv,AL,JEFFERSON
33.5021227,-86.8064447,1,73,1073,AL,BT5819389,THE KIRKLIN CLINIC PHARMACY,UNIVERSITY OF ALABAMA HOSPITAL 2000 6TH AVENUE SOUTH  BIRMINGHAM  AL 35233,2388220,https://www.washingtonpost.com/wp-stat/dea-pain-pill-database/bulk/pharmacy/AL-BT5819389.csv,AL,JEFFERSON
33.5023235,-86.7979839,1,73,1073,AL,BT5819377,THE COMMUNITY HEALTH & FAMILY,UNIVERSITY OF ALABAMA HOSPITAL 930 SOUTH 20TH STREET  BIRMINGHAM  AL 35205,534980,https://www.washingtonpost.com/wp-stat/dea-pain-pill-database/bulk/pharmacy/AL-BT5819377.csv,AL,JEFFERSON
33.5008066,-86.7968066,1,73,1073,AL,BB1415024,BIRMINGHAM APOTHECARY,1032 20TH ST SOUTH  BIRMINGHAM  AL 35205,421590,https://www.washingtonpost.com/wp-stat/dea-pain-pill-database/bulk/pharmacy/AL-BB1415024.csv,AL,JEFFERSON
33.5059006,-86.8078722,1,73,1073,AL,BS6949119,"PROCARE PHARMACY, DBA: CVS/PHARMACY",1521 4TH AVE   SOUTH  BIRMINGHAM  AL 35233,34500,https://www.washingtonpost.com/wp-stat/dea-pain-pill-database/bulk/pharmacy/AL-BS6949119.csv,AL,JEFFERSON
33.5079488,-86.8002573,1,73,1073,AL,BT7438460,THE KIRKLIN CLINIC,ATTN   HSF PHARMACY DEPT  BIRMINGHAM  AL 35233,1200,https://www.washingtonpost.com/wp-stat/dea-pain-pill-database/bulk/pharmacy/AL-BT7438460.csv,AL,JEFFERSON
33.5054832,-86.8022118,1,73,1073,AL,BU4329771,UAB SPECIALTY PHARMACY,601 19TH STREET SOUTH 4TH FLOOR OF QUARTERBACK TOWER  BIRMINGHAM  AL 35249,85030,https://www.washingtonpost.com/wp-stat/dea-pain-pill-database/bulk/pharmacy/AL-BU4329771.csv,AL,JEFFERSON
32.6149924,-85.4639459,1,81,1081,AL,BT7161526,THE DRUG STORE,464 N DEAN ROAD  AUBURN  AL 36830,2368380,https://www.washingtonpost.com/wp-stat/dea-pain-pill-database/bulk/pharmacy/AL-BT7161526.csv,AL,LEE
32.6082181,-85.4655167,1,81,1081,AL,BC5877470,ALABAMA CVS PHARMACY,770 EAST GLENN AVENUE  AUBURN  AL 36830,1289200,https://www.washingtonpost.com/wp-stat/dea-pain-pill-database/bulk/pharmacy/AL-BC5877470.csv,AL,LEE
32.6095829,-85.4654765,1,81,1081,AL,BW9226033,WALGREENS,765 E GLENN AVE  AUBURN  AL 36830,693200,https://www.washingtonpost.com/wp-stat/dea-pain-pill-database/bulk/pharmacy/AL-BW9226033.csv,AL,LEE
32.6102708,-85.4493508,1,81,1081,AL,BW3452480,WINN-DIXIE #470,1625 E  UNIVERSITY DR SUITE 100  AUBURN  AL 36830,350040,https://www.washingtonpost.com/wp-stat/dea-pain-pill-database/bulk/pharmacy/AL-BW3452480.csv,AL,LEE
32.610718,-85.4631201,1,81,1081,AL,BK0862880,KROGER PHARMACY #260,300 DEANS RD STE F  AUBURN  AL 36830,321960,https://www.washingtonpost.com/wp-stat/dea-pain-pill-database/bulk/pharmacy/AL-BK0862880.csv,AL,LEE
32.607672,-85.44897,1,81,1081,AL,BB8013966,BRUNO'S PHARMACY #255,1530 EAST GLENN AVE  AUBURN  AL 36832,47800,https://www.washingtonpost.com/wp-stat/dea-pain-pill-database/bulk/pharmacy/AL-BB8013966.csv,AL,LEE
32.3032873,-87.7987671,1,91,1091,AL,BL8657338,LITTLE DRUG COMPANY,310 SOUTH MAIN STREET PO BOX 480999  LINDEN  AL 36748,1203700,https://www.washingtonpost.com/wp-stat/dea-pain-pill-database/bulk/pharmacy/AL-BL8657338.csv,AL,MARENGO
30.6865927,-88.0544311,1,97,1097,AL,BC7007544,ALABAMA CVS PHARMACY,900 GOVERNMENT ST   MOBILE  AL 36604,1493970,https://www.washingtonpost.com/wp-stat/dea-pain-pill-database/bulk/pharmacy/AL-BC7007544.csv,AL,MOBILE
32.3708254,-86.2682328,1,101,1101,AL,BW9827063,WAL-MART PHARMACY 10-5348,851 ANN STREET  MONTGOMERY  AL 36107,1157530,https://www.washingtonpost.com/wp-stat/dea-pain-pill-database/bulk/pharmacy/AL-BW9827063.csv,AL,MONTGOMERY
34.5662704,-87.0172136,1,103,1103,AL,AA5660685,AUSTIN DRUG CO INC,THE PILL BOX PHR 2422 J DANVILLE ROAD SW  DECATUR  AL 35603,4303720,https://www.washingtonpost.com/wp-stat/dea-pain-pill-database/bulk/pharmacy/AL-AA5660685.csv,AL,MORGAN
34.5651355,-87.0123398,1,103,1103,AL,BP8674726,PUBLIX ALABAMA,1605 BELTLINE RD SW  DECATUR  AL 35601,543940,https://www.washingtonpost.com/wp-stat/dea-pain-pill-database/bulk/pharmacy/AL-BP8674726.csv,AL,MORGAN
33.3661848,-86.797099,1,117,1117,AL,BR5764370,RITE AID,KEYSTONE PLAZA SHOPPING CENTER 3588 MONTGOMERY HIGHWAY  PELHAM  AL 35124,362820,https://www.washingtonpost.com/wp-stat/dea-pain-pill-database/bulk/pharmacy/AL-BR5764370.csv,AL,SHELBY
33.3470045,-86.7972673,1,117,1117,AL,BP7811614,PUBLIX ALABAMA,SOUTHGATE VILLAGE 1944 MONTGOMERY HIGHWAY S  BIRMINGHAM  AL 35244,309430,https://www.washingtonpost.com/wp-stat/dea-pain-pill-database/bulk/pharmacy/AL-BP7811614.csv,AL,JEFFERSON
33.3655715,-86.783501,1,117,1117,AL,FE0623187,EAGLE PHARMACY,2200 RIVERCHASE CENTER SUITE 675  HOOVER  AL 35244,5300,https://www.washingtonpost.com/wp-stat/dea-pain-pill-database/bulk/pharmacy/AL-FE0623187.csv,AL,JEFFERSON
30.6822432,-88.2259841,1,97,1097,AL,BW7581778,WALGREENS,370 SCHILLINGER ROAD SOUTH  MOBILE  AL 36695,2125320,https://www.washingtonpost.com/wp-stat/dea-pain-pill-database/bulk/pharmacy/AL-BW7581778.csv,AL,MOBILE
30.6405675,-88.2253791,1,97,1097,AL,BW7104223,WALGREENS,2490 SCHILLINGER RD S  MOBILE  AL 36695,1515700,https://www.washingtonpost.com/wp-stat/dea-pain-pill-database/bulk/pharmacy/AL-BW7104223.csv,AL,MOBILE
30.6403944,-88.2486721,1,97,1097,AL,BR5751385,RITE AID,2420 DAWES ROAD  MOBILE  AL 36695,1038680,https://www.washingtonpost.com/wp-stat/dea-pain-pill-database/bulk/pharmacy/AL-BR5751385.csv,AL,MOBILE
30.6740322,-88.2286522,1,97,1097,AL,BT7636600,TARGET STORES A DIV.OF TARGET CORP.,790 SCHILLINGER ROAD SOUTH  MOBILE  AL 36695,854870,https://www.washingtonpost.com/wp-stat/dea-pain-pill-database/bulk/pharmacy/AL-BT7636600.csv,AL,MOBILE
30.6763409,-88.2264477,1,97,1097,AL,BC8597671,ALABAMA CVS PHARMACY,664 SCHILLINGER RD S  MOBILE  AL 36695,946240,https://www.washingtonpost.com/wp-stat/dea-pain-pill-database/bulk/pharmacy/AL-BC8597671.csv,AL,MOBILE
32.4316339,-86.6549713,1,1,1001,AL,FA2911940,AUTAUGA PHARMACY,209 S WASHINGTON ST   AUTAUGAVILLE  AL 36003,173120,https://www.washingtonpost.com/wp-stat/dea-pain-pill-database/bulk/pharmacy/AL-FA2911940.csv,AL,AUTAUGA
33.6283418,-85.7873664,1,15,1015,AL,BR5227423,ALABAMA CVS PHARMACY,1404 GOLDEN SPRINGS RD   ANNISTON  AL 36207,1235930,https://www.washingtonpost.com/wp-stat/dea-pain-pill-database/bulk/pharmacy/AL-BR5227423.csv,AL,CALHOUN
33.6280459,-85.7876467,1,15,1015,AL,BW5167300,WINN-DIXIE PHARMACY,1408 GOLDEN SPRINGS ROAD  ANNISTON  AL 36207,823230,https://www.washingtonpost.com/wp-stat/dea-pain-pill-database/bulk/pharmacy/AL-BW5167300.csv,AL,CALHOUN
33.6287578,-85.7854848,1,15,1015,AL,FW1286548,WALGREENS,1401 GOLDEN SPRINGS RD  ANNISTON  AL 36207,753490,https://www.washingtonpost.com/wp-stat/dea-pain-pill-database/bulk/pharmacy/AL-FW1286548.csv,AL,CALHOUN
31.8765724,-88.3227797,1,23,1023,AL,FH1322685,HOMETOWN PHARMACY,69 WEST MAIN STREET  GILBERTOWN  AL 36908,291840,https://www.washingtonpost.com/wp-stat/dea-pain-pill-database/bulk/pharmacy/AL-FH1322685.csv,AL,CHOCTAW
31.8746753,-88.3214106,1,23,1023,AL,BD5010753,D & L PHARMACY,13456 CHOCTAW AVENUE  P O  BOX 222  GILBERTOWN  AL 36908,1353450,https://www.washingtonpost.com/wp-stat/dea-pain-pill-database/bulk/pharmacy/AL-BD5010753.csv,AL,CHOCTAW
31.279676,-86.2486352,1,39,1039,AL,BH4575366,RITE AID,509 EAST CUMMINGS AVENUE  OPP  AL 36467,999680,https://www.washingtonpost.com/wp-stat/dea-pain-pill-database/bulk/pharmacy/AL-BH4575366.csv,AL,COVINGTON
32.5352262,-85.9145819,1,51,1051,AL,BH6652083,HERREN HILL PHARMACY,24 HERREN HILL RD 24 HERREN HILL ROAD  TALLASSEE  AL 36078,2417350,https://www.washingtonpost.com/wp-stat/dea-pain-pill-database/bulk/pharmacy/AL-BH6652083.csv,AL,ELMORE
32.5517035,-85.9206612,1,51,1051,AL,BA9641641,APOTHECARY INC,1405 GILMER AVE PO BOX 780125  TALLASSEE  AL 36078,1197680,https://www.washingtonpost.com/wp-stat/dea-pain-pill-database/bulk/pharmacy/AL-BA9641641.csv,AL,ELMORE
32.5376852,-85.8985845,1,51,1051,AL,BR5156939,ALABAMA CVS PHARMACY,10 GILMER AVE   TALLASSEE  AL 36078,1130240,https://www.washingtonpost.com/wp-stat/dea-pain-pill-database/bulk/pharmacy/AL-BR5156939.csv,AL,ELMORE
32.5376852,-85.8985845,1,51,1051,AL,AH8053489,RITE AID,"10 GILMER AVENUE, TALLASSEE, AL 36078",364630,https://www.washingtonpost.com/wp-stat/dea-pain-pill-database/bulk/pharmacy/AL-AH8053489.csv,AL,ELMORE
32.5517035,-85.9206612,1,51,1051,AL,FT3472735,THE APOTHECARY,1405 GILMER AVENUE  TALLASSEE  AL 36078,41290,https://www.washingtonpost.com/wp-stat/dea-pain-pill-database/bulk/pharmacy/AL-FT3472735.csv,AL,ELMORE
33.9688155,-85.946079,1,55,1055,AL,AH8385204,RITE AID,"3240 HIGHWAY 431, ROANOKE, AL 36274",208500,https://www.washingtonpost.com/wp-stat/dea-pain-pill-database/bulk/pharmacy/AL-AH8385204.csv,AL,RANDOLPH
33.377512,-86.8010497,1,73,1073,AL,BB4259316,BRUNO'S PHARMACY #51,BRUNO S FOOD STORES  INC 3780 RIVERCHASE VILLAGE  HOOVER  AL 35216,80130,https://www.washingtonpost.com/wp-stat/dea-pain-pill-database/bulk/pharmacy/AL-BB4259316.csv,AL,JEFFERSON
32.4002671,-85.948897,1,87,1087,AL,BS9770430,"SHORTER DRUGS, BOATNERWERKS INC",17150 US HIGHWAY 80 WEST  SHORTER  AL 36075,4200,https://www.washingtonpost.com/wp-stat/dea-pain-pill-database/bulk/pharmacy/AL-BS9770430.csv,AL,MACON
34.19826,-86.159619,1,95,1095,AL,AC0484066,BOAZ DISCOUNT DRUGS INC,10460 AL HWY 168  SUITE 1  BOAZ  AL 35957,5635920,https://www.washingtonpost.com/wp-stat/dea-pain-pill-database/bulk/pharmacy/AL-AC0484066.csv,AL,MARSHALL
34.1987654,-86.1564766,1,95,1095,AL,BM6710518,MILL STREET PHARMACY,10639 AL HWY 168  BOAZ  AL 35957,2401770,https://www.washingtonpost.com/wp-stat/dea-pain-pill-database/bulk/pharmacy/AL-BM6710518.csv,AL,MARSHALL
34.1949841,-86.1534554,1,95,1095,AL,BC8544202,CLARK'S PHARMACY,241 BILLY DYAR BLVD  BOAZ  AL 35957,1961110,https://www.washingtonpost.com/wp-stat/dea-pain-pill-database/bulk/pharmacy/AL-BC8544202.csv,AL,MARSHALL
34.1999285,-86.1499769,1,95,1095,AL,FW0504185,WALGREENS,920 US HWY 431  BOAZ  AL 35957,1513860,https://www.washingtonpost.com/wp-stat/dea-pain-pill-database/bulk/pharmacy/AL-FW0504185.csv,AL,MARSHALL
34.2150365,-86.1532368,1,95,1095,AL,BW5382724,WAL-MART PHARMACY 10-0298,1972  HIGHWAY 431  BOAZ  AL 35957,1482500,https://www.washingtonpost.com/wp-stat/dea-pain-pill-database/bulk/pharmacy/AL-BW5382724.csv,AL,MARSHALL
30.6415925,-88.1916667,1,97,1097,AL,BB7081970,BRUNO'S PHARMACY #327,2370 HILLCREST ROAD  MOBILE  AL 36695,150930,https://www.washingtonpost.com/wp-stat/dea-pain-pill-database/bulk/pharmacy/AL-BB7081970.csv,AL,MOBILE
30.7407439,-88.0797325,1,97,1097,AL,AC3048837,CENTRAL DISCOUNT DRUGS,628 N WILSON AVE  PRICHARD  AL 36610,6791170,https://www.washingtonpost.com/wp-stat/dea-pain-pill-database/bulk/pharmacy/AL-AC3048837.csv,AL,MOBILE
34.5565103,-86.9958752,1,103,1103,AL,BW5383257,WAL-MART PHARMACY 10-0662,2800 SPRING AVENUE S W   DECATUR  AL 35603,995950,https://www.washingtonpost.com/wp-stat/dea-pain-pill-database/bulk/pharmacy/AL-BW5383257.csv,AL,MORGAN
34.5606947,-86.9762683,1,103,1103,AL,BK3676004,KROGER PHARMACY,1101 BELTLINE RD  DECATUR  AL 35601,778150,https://www.washingtonpost.com/wp-stat/dea-pain-pill-database/bulk/pharmacy/AL-BK3676004.csv,AL,MORGAN
34.5530823,-86.9733138,1,103,1103,AL,AM3273769,MED-SURG PHARMACY INC,2828 6TH AVE SE  DECATUR  AL 35601,491170,https://www.washingtonpost.com/wp-stat/dea-pain-pill-database/bulk/pharmacy/AL-AM3273769.csv,AL,MORGAN
34.5606947,-86.9762683,1,103,1103,AL,AK7058375,K MART PHARMACY #7066,1101 BELTLINE RD  DECATUR  AL 35601,445130,https://www.washingtonpost.com/wp-stat/dea-pain-pill-database/bulk/pharmacy/AL-AK7058375.csv,AL,MORGAN
34.558799,-86.9702781,1,103,1103,AL,FT0503133,TARGET STORES A DIV. OF TARGET CORP.,TARGET STORE T 2084 1235 PT MALLARD PKWY SE  DECATUR  AL 35601,240500,https://www.washingtonpost.com/wp-stat/dea-pain-pill-database/bulk/pharmacy/AL-FT0503133.csv,AL,MORGAN
33.7144305,-87.388325,1,127,1127,AL,BH2587129,HADDER PHARMACY,P O  BOX 380 10303 MAIN STREET  OAKMAN  AL 35579,721850,https://www.washingtonpost.com/wp-stat/dea-pain-pill-database/bulk/pharmacy/AL-BH2587129.csv,AL,WALKER
31.9956961,-87.2792797,1,131,1131,AL,BR5156028,ALABAMA CVS PHARMACY,7 CAMDEN BYPASS  CAMDEN  AL 36726,555130,https://www.washingtonpost.com/wp-stat/dea-pain-pill-database/bulk/pharmacy/AL-BR5156028.csv,AL,WILCOX
31.9953257,-87.2776625,1,131,1131,AL,BF5977484,FREDS PHARMACY #1356,24 CAMDEN BYPASS  CAMDEN  AL 36726,272020,https://www.washingtonpost.com/wp-stat/dea-pain-pill-database/bulk/pharmacy/AL-BF5977484.csv,AL,WILCOX
31.990613,-87.2907002,1,131,1131,AL,BC6523509,CAMDEN DRUG CO,212 CLAIBORNE STREET  CAMDEN  AL 36726,159970,https://www.washingtonpost.com/wp-stat/dea-pain-pill-database/bulk/pharmacy/AL-BC6523509.csv,AL,WILCOX
30.2638348,-87.6892757,1,3,1003,AL,BW8837669,WALGREENS,1421 GULF SHORES PKWY  GULF SHORES  AL 36542,1275500,https://www.washingtonpost.com/wp-stat/dea-pain-pill-database/bulk/pharmacy/AL-BW8837669.csv,AL,BALDWIN
30.266038,-87.689565,1,3,1003,AL,AK3028176,RITE AID,1527 HIGHWAY 59 SOUTH PO BOX 2437  GULF SHORES  AL 36542,1109900,https://www.washingtonpost.com/wp-stat/dea-pain-pill-database/bulk/pharmacy/AL-AK3028176.csv,AL,BALDWIN
30.2743129,-87.6900266,1,3,1003,AL,FI0803305,ISLAND DRUG,3645 GULF SHORES PKWY  107 P O BOX 4048  GULF SHORES  AL 36542,693760,https://www.washingtonpost.com/wp-stat/dea-pain-pill-database/bulk/pharmacy/AL-FI0803305.csv,AL,BALDWIN
30.2706237,-87.691124,1,3,1003,AL,BG5417236,"GULF SHORES PHARMACY,",251 CLUBHOUSE DRIVE P  O  BOX 2779  GULF SHORES  AL 36547,435030,https://www.washingtonpost.com/wp-stat/dea-pain-pill-database/bulk/pharmacy/AL-BG5417236.csv,AL,BALDWIN
30.2706237,-87.691124,1,3,1003,AL,FG3205843,GULF SHORES FAMILY PHARMACY,251 CLUBHOUSE DRIVE  GULF SHORES  AL 36542,15650,https://www.washingtonpost.com/wp-stat/dea-pain-pill-database/bulk/pharmacy/AL-FG3205843.csv,AL,BALDWIN
33.948345,-86.4713383,1,9,1009,AL,BR5156511,ALABAMA CVS PHARMACY,602 1ST AVENUE EAST  ONEONTA  AL 35121,2146900,https://www.washingtonpost.com/wp-stat/dea-pain-pill-database/bulk/pharmacy/AL-BR5156511.csv,AL,BLOUNT
33.9710849,-86.4467212,1,9,1009,AL,BW5382801,WAL-MART PHARMACY 10-0315,2453 2ND AVE  EAST  ONEONTA  AL 35121,1256800,https://www.washingtonpost.com/wp-stat/dea-pain-pill-database/bulk/pharmacy/AL-BW5382801.csv,AL,BLOUNT
33.9699642,-86.4531236,1,9,1009,AL,FJ0959429,J & M PHARMACY AND COMPOUNDING CENTER,2040 2ND AVE EAST  SUITE C   ONEONTA  AL 35121,730530,https://www.washingtonpost.com/wp-stat/dea-pain-pill-database/bulk/pharmacy/AL-FJ0959429.csv,AL,BLOUNT
33.9549132,-86.4642759,1,9,1009,AL,BH1636933,RITE AID,"935 2ND AVE EAST, ONEONTA, AL 35121",216600,https://www.washingtonpost.com/wp-stat/dea-pain-pill-database/bulk/pharmacy/AL-BH1636933.csv,AL,BLOUNT
32.4028439,-87.0572936,1,47,1047,AL,BD2507284,DALLAS AVENUE PHARMACY,1402 WEST DALLAS AVE  SELMA  AL 36701,967570,https://www.washingtonpost.com/wp-stat/dea-pain-pill-database/bulk/pharmacy/AL-BD2507284.csv,AL,DALLAS
32.398382,-87.0660166,1,47,1047,AL,BW3072597,WINN-DIXIE #543,1952 W  DALLAS AVE  SELMA  AL 36701,290840,https://www.washingtonpost.com/wp-stat/dea-pain-pill-database/bulk/pharmacy/AL-BW3072597.csv,AL,DALLAS
31.0046746,-87.4942067,1,53,1053,AL,FW0313661,WALGREENS,1504 S MAIN STREET  ATMORE  AL 36502,2312110,https://www.washingtonpost.com/wp-stat/dea-pain-pill-database/bulk/pharmacy/AL-FW0313661.csv,AL,ESCAMBIA
31.0226491,-87.4937789,1,53,1053,AL,AE0471437,ESCAMBIA DRUG STORE,108 SOUTH MAIN ST  ATMORE  AL 36502,1479070,https://www.washingtonpost.com/wp-stat/dea-pain-pill-database/bulk/pharmacy/AL-AE0471437.csv,AL,ESCAMBIA
31.018194,-87.4800707,1,53,1053,AL,FP0258384,"PHARMACY INVESTMENT COORDINATORS, DBA BUY RITE DRUGS",400 MEDICAL PARK DRIVE  ATMORE  AL 36502,1247860,https://www.washingtonpost.com/wp-stat/dea-pain-pill-database/bulk/pharmacy/AL-FP0258384.csv,AL,ESCAMBIA
31.0214501,-87.4880201,1,53,1053,AL,AH7808097,RITE AID,506 EAST CHURCH STREET  ATMORE  AL 36502,1192510,https://www.washingtonpost.com/wp-stat/dea-pain-pill-database/bulk/pharmacy/AL-AH7808097.csv,AL,ESCAMBIA
31.0176729,-87.4802455,1,53,1053,AL,AG2031211,GREENLAWN PHARMACY,406 MEDICAL PARK DR  ATMORE  AL 36502,505200,https://www.washingtonpost.com/wp-stat/dea-pain-pill-database/bulk/pharmacy/AL-AG2031211.csv,AL,ESCAMBIA
31.006105,-87.49195,1,53,1053,AL,BF8319887,FRED'S PHARMACY #1076,109 LINDBERG AVE   ATMORE  AL 36502,176000,https://www.washingtonpost.com/wp-stat/dea-pain-pill-database/bulk/pharmacy/AL-BF8319887.csv,AL,ESCAMBIA
31.0225108,-87.4884649,1,53,1053,AL,BA8649468,ATMORE FAMILY PHARMACY,SHELDT  RUSSELL W 410 EAST CHURCH STREET  ATMORE  AL 36502,8700,https://www.washingtonpost.com/wp-stat/dea-pain-pill-database/bulk/pharmacy/AL-BA8649468.csv,AL,ESCAMBIA
33.5148784,-86.8144437,1,73,1073,AL,BC9474127,CITIZEN EXPRESS PHARMACY,1513 5TH AVE N  BIRMINGHAM  AL 35203,595610,https://www.washingtonpost.com/wp-stat/dea-pain-pill-database/bulk/pharmacy/AL-BC9474127.csv,AL,JEFFERSON
33.5162239,-86.8065673,1,73,1073,AL,BM9058050,MEDTOWN,221 20TH STREET NORTH  BIRMINGHAM  AL 35203,469020,https://www.washingtonpost.com/wp-stat/dea-pain-pill-database/bulk/pharmacy/AL-BM9058050.csv,AL,JEFFERSON
33.5239941,-86.8034188,1,73,1073,AL,FB0366686,ARMS-RAPID CARE PHARMACY,712  25TH STREET NORTH  BIRMINGHAM  AL 35203,51490,https://www.washingtonpost.com/wp-stat/dea-pain-pill-database/bulk/pharmacy/AL-FB0366686.csv,AL,JEFFERSON
33.4529633,-86.9715986,1,73,1073,AL,AB1931662,PHARMACY XPRESS,2910 ALLISON BONNETT MEM DR SUITE 112  HUEYTOWN  AL 35023,3054470,https://www.washingtonpost.com/wp-stat/dea-pain-pill-database/bulk/pharmacy/AL-AB1931662.csv,AL,JEFFERSON
33.4508566,-86.9783952,1,73,1073,AL,BW7879945,WALGREENS,3025 ALLISON BONNETT MEMORIAL DR  HUEYTOWN  AL 35023,2358120,https://www.washingtonpost.com/wp-stat/dea-pain-pill-database/bulk/pharmacy/AL-BW7879945.csv,AL,JEFFERSON
33.4518963,-86.9790567,1,73,1073,AL,BR5157260,ALABAMA CVS PHARMACY,3022 ALLISON BONNETT DR  HUEYTOWN  AL 35023,1855050,https://www.washingtonpost.com/wp-stat/dea-pain-pill-database/bulk/pharmacy/AL-BR5157260.csv,AL,JEFFERSON
33.4533427,-86.9782065,1,73,1073,AL,BP9697650,PUBLIX ALABAMA,3014 ALLISON BONNETT MEMORIAL DR STE 130  HUEYTOWN  AL 35023,647700,https://www.washingtonpost.com/wp-stat/dea-pain-pill-database/bulk/pharmacy/AL-BP9697650.csv,AL,JEFFERSON
33.4509133,-86.9826634,1,73,1073,AL,BF7636612,"FRED'S, PHARM #1876",3056 ALLISON BONNETT  HUEYTOWN  AL 35023,449000,https://www.washingtonpost.com/wp-stat/dea-pain-pill-database/bulk/pharmacy/AL-BF7636612.csv,AL,JEFFERSON
33.4523166,-86.9687431,1,73,1073,AL,BF3488170,FOOD WORLD PHARMACY #58,BRUNO S FOOD STORES  INC  2891 ALLISON BONNETT  HUEYTOWN  AL 35023,297120,https://www.washingtonpost.com/wp-stat/dea-pain-pill-database/bulk/pharmacy/AL-BF3488170.csv,AL,JEFFERSON
34.8033269,-86.9523777,1,83,1083,AL,FW0534722,WALGREENS,101 US HWY 31 N  ATHENS  AL 35611,991200,https://www.washingtonpost.com/wp-stat/dea-pain-pill-database/bulk/pharmacy/AL-FW0534722.csv,AL,LIMESTONE
34.8045696,-86.9525595,1,83,1083,AL,BK0850330,K MART PHARMACY #9648,104 HIGHWAY 31 NORTH  ATHENS  AL 35611,427930,https://www.washingtonpost.com/wp-stat/dea-pain-pill-database/bulk/pharmacy/AL-BK0850330.csv,AL,LIMESTONE
34.74892,-86.609313,1,89,1089,AL,BR5155379,ALABAMA CVS PHARMACY,2525 OAKWOOD AVE  HUNTSVILLE  AL 35810,2211930,https://www.washingtonpost.com/wp-stat/dea-pain-pill-database/bulk/pharmacy/AL-BR5155379.csv,AL,MADISON
34.7436908,-86.6026988,1,89,1089,AL,BC7004740,COSTCO WHOLELSALE CORPORATION,1205 NORTH MEMORIAL PARKWAY  HUNTSVILLE  AL 35801,575190,https://www.washingtonpost.com/wp-stat/dea-pain-pill-database/bulk/pharmacy/AL-BC7004740.csv,AL,MADISON
34.7469833,-86.6004757,1,89,1089,AL,AS3146099,K MART CORPORATION,1401 MEMORIAL PARKWAY N W  HUNTSVILLE  AL 35801,497720,https://www.washingtonpost.com/wp-stat/dea-pain-pill-database/bulk/pharmacy/AL-AS3146099.csv,AL,MADISON
34.7628516,-86.5983912,1,89,1089,AL,FH3013238,HEALTHMART PHARMACY,2599 SPARKMAN DRIVE SUITE B  HUNTSVILLE  AL 35810,252090,https://www.washingtonpost.com/wp-stat/dea-pain-pill-database/bulk/pharmacy/AL-FH3013238.csv,AL,MADISON
34.7503033,-86.600339,1,89,1089,AL,AT9793957,KROGER #508,2110 OAKWOOD AVE  HUNTSVILLE  AL 35810,1776320,https://www.washingtonpost.com/wp-stat/dea-pain-pill-database/bulk/pharmacy/AL-AT9793957.csv,AL,MADISON
34.665847,-86.741457,1,89,1089,AL,FP0195443,PHARMACY CARE ASSOCIATES,285 DUNLOP BLVD SUITE A  HUNTSVILLE  AL 35824,1094290,https://www.washingtonpost.com/wp-stat/dea-pain-pill-database/bulk/pharmacy/AL-FP0195443.csv,AL,MADISON
34.132682,-87.9897822,1,93,1093,AL,AF3473535,FRED'S PHARMACY,797 MILITARY STREET S PO BOX 36  HAMILTON  AL 35570,2321640,https://www.washingtonpost.com/wp-stat/dea-pain-pill-database/bulk/pharmacy/AL-AF3473535.csv,AL,MARION
32.3527775,-86.2641691,1,101,1101,AL,BR5156559,ALABAMA CVS PHARMACY,3190 ZELDA RD   MONTGOMERY  AL 36106,1126640,https://www.washingtonpost.com/wp-stat/dea-pain-pill-database/bulk/pharmacy/AL-BR5156559.csv,AL,MONTGOMERY
32.3638718,-86.2858008,1,101,1101,AL,BR5155999,ALABAMA CVS PHARMACY,1525 FOREST AVENUE  MONTGOMERY  AL 36106,839530,https://www.washingtonpost.com/wp-stat/dea-pain-pill-database/bulk/pharmacy/AL-BR5155999.csv,AL,MONTGOMERY
32.5007935,-85.043678,1,113,1113,AL,BW5382611,WAL-MART PHARMACY 10-1284,3700 HWY 280 431 NORTH  PHENIX CITY  AL 36867,2771400,https://www.washingtonpost.com/wp-stat/dea-pain-pill-database/bulk/pharmacy/AL-BW5382611.csv,AL,RUSSELL
31.6484595,-86.7555436,1,13,1013,AL,BF6854536,FRED'S PHARMACY #1714,715 HWY 106 WEST  GEORGIANA  AL 36033,1720400,https://www.washingtonpost.com/wp-stat/dea-pain-pill-database/bulk/pharmacy/AL-BF6854536.csv,AL,BUTLER
31.6363448,-86.7407241,1,13,1013,AL,FG2271257,GEORGIANA PHARMACY,236 JONES STREET  GEORGIANA  AL 36033,456860,https://www.washingtonpost.com/wp-stat/dea-pain-pill-database/bulk/pharmacy/AL-FG2271257.csv,AL,BUTLER
33.8159007,-85.7606967,1,15,1015,AL,FW1149120,WALGREENS,311 PELHAM RD  S  JACKSONVILLE  AL 36265,605990,https://www.washingtonpost.com/wp-stat/dea-pain-pill-database/bulk/pharmacy/AL-FW1149120.csv,AL,CALHOUN
33.8138134,-85.7607768,1,15,1015,AL,BC8014071,CROW DRUG,7 PUBLIC SQUARE EAST  JACKSONVILLE  AL 36265,1095270,https://www.washingtonpost.com/wp-stat/dea-pain-pill-database/bulk/pharmacy/AL-BC8014071.csv,AL,CALHOUN
34.1821422,-86.8472485,1,43,1043,AL,BR5154959,ALABAMA CVS PHARMACY,610 2ND AVENUE NW  CULLMAN  AL 35055,3087700,https://www.washingtonpost.com/wp-stat/dea-pain-pill-database/bulk/pharmacy/AL-BR5154959.csv,AL,CULLMAN
34.1768886,-86.8446414,1,43,1043,AL,BE2145250,ED HOLCOMBE DISCOUNT PHARMACY,106 2ND AVE S W   CULLMAN  AL 35055,2705600,https://www.washingtonpost.com/wp-stat/dea-pain-pill-database/bulk/pharmacy/AL-BE2145250.csv,AL,CULLMAN
34.1724344,-86.8515155,1,43,1043,AL,AC6195273,C & L CORPORATION OF CULLMAN,1201 4TH STREET S W  CULLMAN  AL 35055,955460,https://www.washingtonpost.com/wp-stat/dea-pain-pill-database/bulk/pharmacy/AL-AC6195273.csv,AL,CULLMAN
34.1809977,-86.8466212,1,43,1043,AL,FW3566176,WALGREENS,444 2ND AVE  NW  CULLMAN  AL 35055,21700,https://www.washingtonpost.com/wp-stat/dea-pain-pill-database/bulk/pharmacy/AL-FW3566176.csv,AL,CULLMAN
31.2271522,-85.408616,1,69,1069,AL,BR5156749,ALABAMA CVS PHARMACY,1270 WEST MAIN STREET  DOTHAN  AL 36301,1642000,https://www.washingtonpost.com/wp-stat/dea-pain-pill-database/bulk/pharmacy/AL-BR5156749.csv,AL,HOUSTON
31.2446246,-85.4269495,1,69,1069,AL,BS9798527,SAM'S PHARMACY 10-8192,3440 ROSS CLARK CIRCLE NW  DOTHAN  AL 36303,316980,https://www.washingtonpost.com/wp-stat/dea-pain-pill-database/bulk/pharmacy/AL-BS9798527.csv,AL,HOUSTON
31.2282568,-85.4158326,1,69,1069,AL,AN0471209,NORTHCUTT DRUG CO,1774 WEST MAIN STREET  DOTHAN  AL 36301,200500,https://www.washingtonpost.com/wp-stat/dea-pain-pill-database/bulk/pharmacy/AL-AN0471209.csv,AL,HOUSTON
32.458339,-86.4485788,1,1,1001,AL,BU4203751,OMNICARE OF PRATTVILLE,842 PEACHTREE ST  PRATTVILLE  AL 36066,4420760,https://www.washingtonpost.com/wp-stat/dea-pain-pill-database/bulk/pharmacy/AL-BU4203751.csv,AL,AUTAUGA
32.4599625,-86.4497644,1,1,1001,AL,BW7577488,WALGREENS,703 S MEMORIAL DRIVE  PRATTVILLE  AL 36067,3650920,https://www.washingtonpost.com/wp-stat/dea-pain-pill-database/bulk/pharmacy/AL-BW7577488.csv,AL,AUTAUGA
32.4606381,-86.4486578,1,1,1001,AL,BT4725050,JONES DRUGS 003,959 EAST MAIN ST SUITE A  PRATTVILLE  AL 36066,2364900,https://www.washingtonpost.com/wp-stat/dea-pain-pill-database/bulk/pharmacy/AL-BT4725050.csv,AL,AUTAUGA
32.4648538,-86.4501399,1,1,1001,AL,BA6459576,ADAMS DRUGS-PRATTVILLE,103 SOUTH MEMORIAL DRIVE  PRATTVILLE  AL 36066,2031400,https://www.washingtonpost.com/wp-stat/dea-pain-pill-database/bulk/pharmacy/AL-BA6459576.csv,AL,AUTAUGA
32.4595656,-86.4545067,1,1,1001,AL,BR5157056,ALABAMA CVS PHARMACY,708 E  MAIN ST   PRATTVILLE  AL 36067,1776820,https://www.washingtonpost.com/wp-stat/dea-pain-pill-database/bulk/pharmacy/AL-BR5157056.csv,AL,AUTAUGA
30.8860401,-87.7901609,1,3,1003,AL,BW6443802,WAL-MART PHARMACY 10-2739,701 MCMEANS AVENUE  BAY MINETTE  AL 36507,1600090,https://www.washingtonpost.com/wp-stat/dea-pain-pill-database/bulk/pharmacy/AL-BW6443802.csv,AL,BALDWIN
30.5557003,-87.891025,1,3,1003,AL,FP1444657,PUBLIX ALABAMA,22530 US HWY 98  SUITE 100  FAIRHOPE  AL 36532,129830,https://www.washingtonpost.com/wp-stat/dea-pain-pill-database/bulk/pharmacy/AL-FP1444657.csv,AL,BALDWIN
30.6738818,-87.8474202,1,3,1003,AL,FP2911508,PUBLIX ALABAMA,10179 EASTERN SHORE DRIVE  SPANISH FORT  AL 36527,57300,https://www.washingtonpost.com/wp-stat/dea-pain-pill-database/bulk/pharmacy/AL-FP2911508.csv,AL,BALDWIN
30.6591768,-87.855589,1,3,1003,AL,FS0285569,SAM'S PHARMACY 10-4990,29683 FREDERICK BOULEVARD  DAPHNE  AL 36526,292500,https://www.washingtonpost.com/wp-stat/dea-pain-pill-database/bulk/pharmacy/AL-FS0285569.csv,AL,BALDWIN
30.6560058,-87.9012587,1,3,1003,AL,BR9881586,RX ADVANTAGE,7101 HWY 90 SUITE 300  DAPHNE  AL 36526,3689593,https://www.washingtonpost.com/wp-stat/dea-pain-pill-database/bulk/pharmacy/AL-BR9881586.csv,AL,BALDWIN
30.6428058,-87.867903,1,3,1003,AL,BP5817157,PHARMERICA,9052 INDEPENDENCE AVENUE  DAPHNE  AL 36526,2321300,https://www.washingtonpost.com/wp-stat/dea-pain-pill-database/bulk/pharmacy/AL-BP5817157.csv,AL,BALDWIN
30.6189017,-87.9064617,1,3,1003,AL,BW6531075,WALGREENS,3025 US HIGHWAY 98  DAPHNE  AL 36526,2429350,https://www.washingtonpost.com/wp-stat/dea-pain-pill-database/bulk/pharmacy/AL-BW6531075.csv,AL,BALDWIN
30.6028486,-87.895968,1,3,1003,AL,BT6800139,TARGET STORES A DIV.OF TARGET CORP.,1698 US HWY  98  DAPHNE  AL 36526,774740,https://www.washingtonpost.com/wp-stat/dea-pain-pill-database/bulk/pharmacy/AL-BT6800139.csv,AL,BALDWIN
30.6195858,-87.9076233,1,3,1003,AL,BW6662793,WINN-DIXIE PHARMACY,3075 US HIGHWAY 98  DAPHNE  AL 36526,543820,https://www.washingtonpost.com/wp-stat/dea-pain-pill-database/bulk/pharmacy/AL-BW6662793.csv,AL,BALDWIN
30.6127869,-87.9074904,1,3,1003,AL,FP1457159,PHARMACY SERVICES,101 A VILLA DRIVE  DAPHNE  AL 36526,130260,https://www.washingtonpost.com/wp-stat/dea-pain-pill-database/bulk/pharmacy/AL-FP1457159.csv,AL,BALDWIN
30.5991328,-87.8972929,1,3,1003,AL,BC8626129,COMPOUND CARE PLUS,1410 HWY 98 UNIT G  DAPHNE  AL 36526,1800,https://www.washingtonpost.com/wp-stat/dea-pain-pill-database/bulk/pharmacy/AL-BC8626129.csv,AL,BALDWIN
30.577518,-87.897023,1,3,1003,AL,AP0483420,HERITAGE COMPOUNDING PHARMACY,24208 US HWY 98 STE C  FAIRHOPE  AL 36532,200,https://www.washingtonpost.com/wp-stat/dea-pain-pill-database/bulk/pharmacy/AL-AP0483420.csv,AL,BALDWIN
30.5991443,-87.8972541,1,3,1003,AL,FI2723446,INJURY MED EXPRESS PHARMACY,1410 HWY 98 UNIT H  DAPHNE  AL 36526,43600,https://www.washingtonpost.com/wp-stat/dea-pain-pill-database/bulk/pharmacy/AL-FI2723446.csv,AL,BALDWIN
30.3038963,-87.6804373,1,3,1003,AL,BT9835111,TARGET STORES A DIV. OF TARGET CORP.,3820 GULF SHORES PKWY  GULF SHORES  AL 36542,423040,https://www.washingtonpost.com/wp-stat/dea-pain-pill-database/bulk/pharmacy/AL-BT9835111.csv,AL,BALDWIN
30.2987805,-87.6813811,1,3,1003,AL,FP1909540,PUBLIX ALABAMA,160 COTTON CREEK DRIVE  SUITE 100  GULF SHORES  AL 36542,142200,https://www.washingtonpost.com/wp-stat/dea-pain-pill-database/bulk/pharmacy/AL-FP1909540.csv,AL,BALDWIN
30.4140654,-87.5986184,1,3,1003,AL,BE8214176,ELBERTA PHARMACY,24980 STATE ST PO DRAWER 670  ELBERTA  AL 36530,2882260,https://www.washingtonpost.com/wp-stat/dea-pain-pill-database/bulk/pharmacy/AL-BE8214176.csv,AL,BALDWIN
31.8792182,-85.4496416,1,5,1005,AL,BC5071282,CLAYTON DRUG COMPANY,23 COURT SQUARE PO BOX 220  CLAYTON  AL 36016,474530,https://www.washingtonpost.com/wp-stat/dea-pain-pill-database/bulk/pharmacy/AL-BC5071282.csv,AL,BARBOUR
31.8435495,-85.1710613,1,5,1005,AL,BW5382661,WAL-MART PHARMACY 10-1638,3176 S EUFAULA AVE  EUFAULA  AL 36027,1501260,https://www.washingtonpost.com/wp-stat/dea-pain-pill-database/bulk/pharmacy/AL-BW5382661.csv,AL,BARBOUR
31.8780128,-85.1468426,1,5,1005,AL,BW5625679,WINN-DIXIE PHARMACY,1055 S EUFAULA AVENUE  EUFAULA  AL 36027,835580,https://www.washingtonpost.com/wp-stat/dea-pain-pill-database/bulk/pharmacy/AL-BW5625679.csv,AL,BARBOUR
33.2141179,-87.1622669,1,7,1007,AL,BW2046399,WOODSTOCK DRUG,P O  BOX 280 28891 HWY 5  WOODSTOCK  AL 35188,2418700,https://www.washingtonpost.com/wp-stat/dea-pain-pill-database/bulk/pharmacy/AL-BW2046399.csv,AL,BIBB
33.1339851,-87.1437988,1,7,1007,AL,BJ1297907,JACK'S DISCOUNT PHARMACY,23010 HIGHWAY 5 P O  BOX 680  WEST BLOCTON  AL 35184,1691520,https://www.washingtonpost.com/wp-stat/dea-pain-pill-database/bulk/pharmacy/AL-BJ1297907.csv,AL,BIBB
33.1339851,-87.1437988,1,7,1007,AL,FJ3488118,JACK'S DISCOUNT PHARMACY,23010 HIGHWAY 5 PO BOX 680  WEST BLOCTON  AL 35184,41300,https://www.washingtonpost.com/wp-stat/dea-pain-pill-database/bulk/pharmacy/AL-FJ3488118.csv,AL,BIBB
33.9317654,-86.4943753,1,9,1009,AL,AA7955771,ALACO DISCOUNT PHARMACY #4,27550 STATE HWY 75 SUITE 107  ONEONTA  AL 35121,1798950,https://www.washingtonpost.com/wp-stat/dea-pain-pill-database/bulk/pharmacy/AL-AA7955771.csv,AL,BLOUNT
33.9453531,-86.4755905,1,9,1009,AL,BM1604823,MILLER DRUG COMPANY,KIMBERLY SAYLORS RUSH 212 1ST AVE EAST  ONEONTA  AL 35121,780160,https://www.washingtonpost.com/wp-stat/dea-pain-pill-database/bulk/pharmacy/AL-BM1604823.csv,AL,BLOUNT
32.1463189,-85.7157319,1,11,1011,AL,AM6201127,MAIN DRUG STORE,BOX 432 302 N PRAIRIE ST  UNION SPRINGS  AL 36089,1020330,https://www.washingtonpost.com/wp-stat/dea-pain-pill-database/bulk/pharmacy/AL-AM6201127.csv,AL,BULLOCK
32.1435271,-85.7195334,1,11,1011,AL,BR5156636,ALABAMA CVS PHARMACY,101 BASKIN ST   NORTH  UNION SPRINGS  AL 36089,604730,https://www.washingtonpost.com/wp-stat/dea-pain-pill-database/bulk/pharmacy/AL-BR5156636.csv,AL,BULLOCK
32.1450108,-85.7158951,1,11,1011,AL,AU6985848,UNION SPRINGS PHARMACY,204 PRAIRIE STREET NORTH PO BOX 311  UNION SPRINGS  AL 36089,284040,https://www.washingtonpost.com/wp-stat/dea-pain-pill-database/bulk/pharmacy/AL-AU6985848.csv,AL,BULLOCK
31.8491271,-86.6393019,1,13,1013,AL,FW0914300,WALGREENS,101 GREENVILLE BYP  GREENVILLE  AL 36037,656930,https://www.washingtonpost.com/wp-stat/dea-pain-pill-database/bulk/pharmacy/AL-FW0914300.csv,AL,BUTLER
33.7632323,-85.8905607,1,15,1015,AL,BD8030481,DOWNEY DRUG ALEXANDRIA,658 VALLEY CUB DRIVE  ALEXANDRIA  AL 36250,3556440,https://www.washingtonpost.com/wp-stat/dea-pain-pill-database/bulk/pharmacy/AL-BD8030481.csv,AL,CALHOUN
33.7697255,-85.8917017,1,15,1015,AL,BF8509599,"FRED'S, PHARMACY #1084",120 SPRING BRANCH ROAD  ALEXANDRIA  AL 36250,382000,https://www.washingtonpost.com/wp-stat/dea-pain-pill-database/bulk/pharmacy/AL-BF8509599.csv,AL,CALHOUN
34.5195736,-87.7159372,1,59,1059,AL,FF2415188,FRANKLIN PHARMACY,361 MUSTANG DR  RUSSELLVILLE  AL 35654,371640,https://www.washingtonpost.com/wp-stat/dea-pain-pill-database/bulk/pharmacy/AL-FF2415188.csv,AL,FRANKLIN
34.4394939,-88.1370997,1,59,1059,AL,BF8219847,FRED'S PHARMACY #2751,525 4TH AVE  SE P O  BOX 2004  RED BAY  AL 35582,981300,https://www.washingtonpost.com/wp-stat/dea-pain-pill-database/bulk/pharmacy/AL-BF8219847.csv,AL,FRANKLIN
34.4394501,-88.1374884,1,59,1059,AL,BR5156650,ALABAMA CVS PHARMACY,523 FOURTH AVE SE  PO BOX 1309  RED BAY  AL 35582,597300,https://www.washingtonpost.com/wp-stat/dea-pain-pill-database/bulk/pharmacy/AL-BR5156650.csv,AL,FRANKLIN
34.33182,-86.759589,1,103,1103,AL,BQ4895566,QUALITY DISCOUNT DRUGS,4109 EVA RD P O  BOX 98  EVA  AL 35621,1717180,https://www.washingtonpost.com/wp-stat/dea-pain-pill-database/bulk/pharmacy/AL-BQ4895566.csv,AL,MORGAN
34.220605,-85.5980206,1,19,1019,AL,FJ0594425,JOHNSON RX PHARMACY,4055 AL HWY 9 SUITE F  CEDAR BLUFF  AL 35959,1307810,https://www.washingtonpost.com/wp-stat/dea-pain-pill-database/bulk/pharmacy/AL-FJ0594425.csv,AL,CHEROKEE
32.8490557,-86.6344402,1,21,1021,AL,BR5154860,ALABAMA CVS PHARMACY,1105 7TH ST   NORTH  CLANTON  AL 35045,2829840,https://www.washingtonpost.com/wp-stat/dea-pain-pill-database/bulk/pharmacy/AL-BR5154860.csv,AL,CHILTON
32.8505505,-86.6326084,1,21,1021,AL,BW3508667,WINN DIXIE 411,640 OLLIE AVE  CLANTON  AL 35045,1626590,https://www.washingtonpost.com/wp-stat/dea-pain-pill-database/bulk/pharmacy/AL-BW3508667.csv,AL,CHILTON
32.8491894,-86.6327266,1,21,1021,AL,AH4663743,RITE AID,641 OLLIE AVENUE  CLANTON  AL 35045,767090,https://www.washingtonpost.com/wp-stat/dea-pain-pill-database/bulk/pharmacy/AL-AH4663743.csv,AL,CHILTON
31.1066806,-85.5933277,1,61,1061,AL,BD6152641,DALTON PHARMACY,141 S DALTON STREET PO BOX 279  SLOCOMB  AL 36375,906920,https://www.washingtonpost.com/wp-stat/dea-pain-pill-database/bulk/pharmacy/AL-BD6152641.csv,AL,GENEVA
32.6375178,-85.4034549,1,81,1081,AL,BR5156989,ALABAMA CVS PHARMACY,1997 PEPPERELL PKWY   OPELIKA  AL 36801,2399340,https://www.washingtonpost.com/wp-stat/dea-pain-pill-database/bulk/pharmacy/AL-BR5156989.csv,AL,LEE
32.6379264,-85.4219197,1,81,1081,AL,BW5382899,WAL-MART PHARMACY 10-0355,2900 PEPPERELL PARKWAY  OPELIKA  AL 36801,728430,https://www.washingtonpost.com/wp-stat/dea-pain-pill-database/bulk/pharmacy/AL-BW5382899.csv,AL,LEE
32.6374476,-85.4063581,1,81,1081,AL,FW0491528,WALGREENS,2015 PEPPERELL PKWY   OPELIKA  AL 36801,780430,https://www.washingtonpost.com/wp-stat/dea-pain-pill-database/bulk/pharmacy/AL-FW0491528.csv,AL,LEE
32.6355925,-85.4026081,1,81,1081,AL,AM0463593,OPELIKA MEDICAL ARTS PHARMACY INC,121 N 20TH STREET BLDG  1  OPELIKA  AL 36801,655270,https://www.washingtonpost.com/wp-stat/dea-pain-pill-database/bulk/pharmacy/AL-AM0463593.csv,AL,LEE
32.6206314,-85.4115995,1,81,1081,AL,FK0311617,KROGER PHARMACY #631,2460 ENTERPRISE DRIVE  OPELIKA  AL 36802,413900,https://www.washingtonpost.com/wp-stat/dea-pain-pill-database/bulk/pharmacy/AL-FK0311617.csv,AL,LEE
32.6347915,-85.4042008,1,81,1081,AL,AC0454203,ADAMS PHARMACY & HOME CARE,1961 FIRST AVENUE  OPELIKA  AL 36801,251230,https://www.washingtonpost.com/wp-stat/dea-pain-pill-database/bulk/pharmacy/AL-AC0454203.csv,AL,LEE
32.6176369,-85.410602,1,81,1081,AL,BT9341429,TARGET STORES A DIV.OF TARGET CORP.,2640 ENTERPRISE DR  OPELIKA  AL 36801,150640,https://www.washingtonpost.com/wp-stat/dea-pain-pill-database/bulk/pharmacy/AL-BT9341429.csv,AL,LEE
32.6305266,-85.4377589,1,81,1081,AL,FF1701196,FREEMAN PHARMACY #2,3900 PEPPERELL PKWY SUITE 101  OPELIKA  AL 36801,188020,https://www.washingtonpost.com/wp-stat/dea-pain-pill-database/bulk/pharmacy/AL-FF1701196.csv,AL,LEE
32.6347915,-85.4042008,1,81,1081,AL,BA9641920,"ADAMS PHARMACY SERVICES,  INC",1961 FIRST AVE SUITE 2  OPELIKA  AL 36801,86920,https://www.washingtonpost.com/wp-stat/dea-pain-pill-database/bulk/pharmacy/AL-BA9641920.csv,AL,LEE
32.6353794,-85.4527169,1,81,1081,AL,FE1247887,"EAST ALABAMA HEALTHCARE AUTHORITY, DBA: OAK PARK PHARMACY",1365 GATEWOOD DRIVE  AUBURN  AL 36830,102820,https://www.washingtonpost.com/wp-stat/dea-pain-pill-database/bulk/pharmacy/AL-FE1247887.csv,AL,LEE
32.608092,-85.4254668,1,81,1081,AL,FS0637871,SAM'S PHARMACY 10-4989,2335 BENT CREEK ROAD  AUBURN  AL 36830,89490,https://www.washingtonpost.com/wp-stat/dea-pain-pill-database/bulk/pharmacy/AL-FS0637871.csv,AL,LEE
32.6401441,-85.4126477,1,81,1081,AL,BW3510737,WINN DIXIE 409,2440 PEPPERELL PARKWAY  OPELIKA  AL 36801,11000,https://www.washingtonpost.com/wp-stat/dea-pain-pill-database/bulk/pharmacy/AL-BW3510737.csv,AL,LEE
32.6207208,-85.4055919,1,81,1081,AL,AE4312132,EAST ALABAMA MENTAL HEALTH CENTER,MENTAL RETARDATION CENTER 2506 LAMBERT DRIVE  OPELIKA  AL 36801,500,https://www.washingtonpost.com/wp-stat/dea-pain-pill-database/bulk/pharmacy/AL-AE4312132.csv,AL,LEE
32.5850321,-85.436571,1,81,1081,AL,FP1992898,PUBLIX ALABAMA,2415 MOORES MILL RD   AUBURN  AL 36830,41700,https://www.washingtonpost.com/wp-stat/dea-pain-pill-database/bulk/pharmacy/AL-FP1992898.csv,AL,LEE
34.477843,-86.572342,1,103,1103,AL,BM2542125,MORGAN DRUGS INC,4150 HIGHWAY 231 SUITE 7  LACEYS SPRING  AL 35754,825190,https://www.washingtonpost.com/wp-stat/dea-pain-pill-database/bulk/pharmacy/AL-BM2542125.csv,AL,MORGAN
32.4496037,-87.5145597,1,105,1105,AL,AU7552056,UNION DRUGS,P O  BOX 470 117 WATER ST  UNIONTOWN  AL 36786,233790,https://www.washingtonpost.com/wp-stat/dea-pain-pill-database/bulk/pharmacy/AL-AU7552056.csv,AL,PERRY
32.4496037,-87.5145597,1,105,1105,AL,FU3397444,UNION DRUGS,P O  BOX 1220 117 WATER ST  UNIONTOWN  AL 36786,13090,https://www.washingtonpost.com/wp-stat/dea-pain-pill-database/bulk/pharmacy/AL-FU3397444.csv,AL,PERRY
32.9168129,-86.7162775,1,21,1021,AL,FT3214361,THORSBY DRUGS,4 MINNESOTA AVE P O  BOX 38  THORSBY  AL 35171,32300,https://www.washingtonpost.com/wp-stat/dea-pain-pill-database/bulk/pharmacy/AL-FT3214361.csv,AL,CHILTON
32.784133,-86.8733561,1,21,1021,AL,FB1750997,BROWN DRUG CO. INC. MAPLESVILLE PHARMACY,9081 ALABAMA HWY 22 P O  BOX 145  MAPLESVILLE  AL 36750,383470,https://www.washingtonpost.com/wp-stat/dea-pain-pill-database/bulk/pharmacy/AL-FB1750997.csv,AL,CHILTON
32.784133,-86.8733561,1,21,1021,AL,BT3537480,T J 'S DISCOUNT DRUGS,9081 HWY 22 PO BOX 145  MAPLESVILLE  AL 36750,283540,https://www.washingtonpost.com/wp-stat/dea-pain-pill-database/bulk/pharmacy/AL-BT3537480.csv,AL,CHILTON
31.2110094,-85.3926876,1,69,1069,AL,BB7685134,MIKE'S SOUTHSIDE PHARMACY,1023 S  OATES STREET  DOTHAN  AL 36301,1271660,https://www.washingtonpost.com/wp-stat/dea-pain-pill-database/bulk/pharmacy/AL-BB7685134.csv,AL,HOUSTON
31.2103776,-85.3937634,1,69,1069,AL,BH5010830,RITE AID,1060 SOUTH OATES STREET  DOTHAN  AL 36301,485630,https://www.washingtonpost.com/wp-stat/dea-pain-pill-database/bulk/pharmacy/AL-BH5010830.csv,AL,HOUSTON
31.2192239,-85.397769,1,69,1069,AL,BM3333185,MEDICAL ARTS PHARMACY INC,219 FORTNER STREET  DOTHAN  AL 36301,181650,https://www.washingtonpost.com/wp-stat/dea-pain-pill-database/bulk/pharmacy/AL-BM3333185.csv,AL,HOUSTON
32.519959,-85.0293142,1,81,1081,AL,BC9112905,ALABAMA CVS PHARMACY,5405 SUMMERVILLE RD  PHENIX CITY  AL 36867,1579890,https://www.washingtonpost.com/wp-stat/dea-pain-pill-database/bulk/pharmacy/AL-BC9112905.csv,AL,RUSSELL
32.519094,-85.028624,1,81,1081,AL,FW1119850,WALGREENS,5301 SUMMERVILLE RD  PHENIX CITY  AL 36867,1064600,https://www.washingtonpost.com/wp-stat/dea-pain-pill-database/bulk/pharmacy/AL-FW1119850.csv,AL,RUSSELL
32.5213803,-85.0284616,1,81,1081,AL,BP8807426,PUBLIX ALABAMA,5408 SUMMERVILLE RD  STE 200  PHENIX CITY  AL 36867,783100,https://www.washingtonpost.com/wp-stat/dea-pain-pill-database/bulk/pharmacy/AL-BP8807426.csv,AL,RUSSELL
34.792667,-86.955482,1,83,1083,AL,BA6888361,ATHENS CREEKSIDE DRUGS,605 HWY 31 SOUTH SUITE D  ATHENS  AL 35611,2713570,https://www.washingtonpost.com/wp-stat/dea-pain-pill-database/bulk/pharmacy/AL-BA6888361.csv,AL,LIMESTONE
34.7973333,-86.953238,1,83,1083,AL,BR5156220,ALABAMA CVS PHARMACY,215 HWY 31 SOUTH  ATHENS  AL 35611,1671980,https://www.washingtonpost.com/wp-stat/dea-pain-pill-database/bulk/pharmacy/AL-BR5156220.csv,AL,LIMESTONE
34.7886301,-86.9589404,1,83,1083,AL,BW5382584,WAL-MART PHARMACY 10-0661,1011 U S  HWY 72 EAST  ATHENS  AL 35611,1187920,https://www.washingtonpost.com/wp-stat/dea-pain-pill-database/bulk/pharmacy/AL-BW5382584.csv,AL,LIMESTONE
34.8033631,-86.9498997,1,83,1083,AL,BS9395852,SOUTHERN FAMILY MARKET #913,100 HIGHWAY 31 NORTH SUITE H  ATHENS  AL 35611,635920,https://www.washingtonpost.com/wp-stat/dea-pain-pill-database/bulk/pharmacy/AL-BS9395852.csv,AL,LIMESTONE
34.7875201,-86.9613685,1,83,1083,AL,FE0449858,EASTSIDE PHARMACY AND CUSTOM COMPOUNDING,22335 HWY 72 EAST SUITE D  ATHENS  AL 35613,316200,https://www.washingtonpost.com/wp-stat/dea-pain-pill-database/bulk/pharmacy/AL-FE0449858.csv,AL,LIMESTONE
31.7199924,-85.8154031,1,109,1109,AL,BH4039168,HAWKINS DRUGS,107 SOUTH MAIN  BRUNDIDGE  AL 36010,581440,https://www.washingtonpost.com/wp-stat/dea-pain-pill-database/bulk/pharmacy/AL-BH4039168.csv,AL,PIKE
31.719307,-85.8158533,1,109,1109,AL,FP0239055,PRICE PHARMACY,132 S MAIN ST  BRUNDIDGE  AL 36010,552500,https://www.washingtonpost.com/wp-stat/dea-pain-pill-database/bulk/pharmacy/AL-FP0239055.csv,AL,PIKE
31.719307,-85.8158533,1,109,1109,AL,AP4878332,PRICE PHARMACY,DON PRICE 132 S MAIN ST  BRUNDIDGE  AL 36010,110600,https://www.washingtonpost.com/wp-stat/dea-pain-pill-database/bulk/pharmacy/AL-AP4878332.csv,AL,PIKE
34.853397,-85.6161624,1,71,1071,AL,FP0215954,PONDER'S MOUNTAIN PHARMACY,29812 ALABAMA HWY 71  BRYANT  AL 35958,592000,https://www.washingtonpost.com/wp-stat/dea-pain-pill-database/bulk/pharmacy/AL-FP0215954.csv,AL,JACKSON
34.7166305,-86.5779445,1,89,1089,AL,BR5154923,ALABAMA CVS PHARMACY,2212 WHITESBURG DR  HUNTSVILLE  AL 35801,2912760,https://www.washingtonpost.com/wp-stat/dea-pain-pill-database/bulk/pharmacy/AL-BR5154923.csv,AL,MADISON
34.7192175,-86.581551,1,89,1089,AL,FT2878708,TVPC PHARMACY,201 GOVERNORS DRIVE SUITE 305  HUNTSVILLE  AL 35801,1152460,https://www.washingtonpost.com/wp-stat/dea-pain-pill-database/bulk/pharmacy/AL-FT2878708.csv,AL,MADISON
34.7195346,-86.5836711,1,89,1089,AL,BA3882176,AMBULATORY CLINIC PHARMACY,301 GOVERNORS DRIVE  HUNTSVILLE  AL 35801,633272,https://www.washingtonpost.com/wp-stat/dea-pain-pill-database/bulk/pharmacy/AL-BA3882176.csv,AL,MADISON
33.3734987,-85.3947998,1,111,1111,AL,FW2572205,WOODLAND QUALITY PHARMACY,24460 HWY 48  WOODLAND  AL 36280,103630,https://www.washingtonpost.com/wp-stat/dea-pain-pill-database/bulk/pharmacy/AL-FW2572205.csv,AL,RANDOLPH
32.4744812,-85.0291537,1,113,1113,AL,BW7671577,WALGREENS,2515 CRAWFORD ROAD  PHENIX CITY  AL 36867,4308250,https://www.washingtonpost.com/wp-stat/dea-pain-pill-database/bulk/pharmacy/AL-BW7671577.csv,AL,RUSSELL
32.4747737,-85.0274857,1,113,1113,AL,BG2766268,GLENN'S PHARAMCY,2413 CRAWFORD ROAD  PHENIX CITY  AL 36867,2542770,https://www.washingtonpost.com/wp-stat/dea-pain-pill-database/bulk/pharmacy/AL-BG2766268.csv,AL,RUSSELL
31.4295193,-86.0762762,1,31,1031,AL,AM5260904,MEDICAL ARTS PHARMACY,1190 HIGHLAND DR  ELBA  AL 36323,1174950,https://www.washingtonpost.com/wp-stat/dea-pain-pill-database/bulk/pharmacy/AL-AM5260904.csv,AL,COFFEE
31.4049857,-86.0819791,1,31,1031,AL,FB0870039,BRYAN PHARMACY INC,991 AL HIGHWAY 203  ELBA  AL 36323,812000,https://www.washingtonpost.com/wp-stat/dea-pain-pill-database/bulk/pharmacy/AL-FB0870039.csv,AL,COFFEE
31.4251905,-86.0797597,1,31,1031,AL,BF7776416,FRED'S PHARMACY #1541,996 HIGHWAY 203  ELBA  AL 36323,700600,https://www.washingtonpost.com/wp-stat/dea-pain-pill-database/bulk/pharmacy/AL-BF7776416.csv,AL,COFFEE
31.4234372,-86.083661,1,31,1031,AL,AH1910579,HAYWOOD'S DISCOUNT DRUGS,806 ALABAMA HIGHWAY 203  ELBA  AL 36323,5300,https://www.washingtonpost.com/wp-stat/dea-pain-pill-database/bulk/pharmacy/AL-AH1910579.csv,AL,COFFEE
31.4212156,-86.0688975,1,31,1031,AL,BS4453281,SOUTHEAST PHARMACEUTICALS,704 TROY HIGHWAY SUITE A  ELBA  AL 36323,2500,https://www.washingtonpost.com/wp-stat/dea-pain-pill-database/bulk/pharmacy/AL-BS4453281.csv,AL,COFFEE
34.9404681,-85.7267019,1,71,1071,AL,FB1644954,B & L DRUGS  KILGORE EXPRESS PHARMACY #5,50452 HIGHWAY 277  BRIDGEPORT  AL 35740,434480,https://www.washingtonpost.com/wp-stat/dea-pain-pill-database/bulk/pharmacy/AL-FB1644954.csv,AL,JACKSON
34.7107469,-86.6087632,1,89,1089,AL,BR5156876,ALABAMA CVS PHARMACY,3115 BOB WALLACE AVE  HUNTSVILLE  AL 35805,1587460,https://www.washingtonpost.com/wp-stat/dea-pain-pill-database/bulk/pharmacy/AL-BR5156876.csv,AL,MADISON
34.7032359,-86.5900642,1,89,1089,AL,AT9793945,THE KROGER CO,2009 DRAKE AVENUE  HUNTSVILLE  AL 35801,858100,https://www.washingtonpost.com/wp-stat/dea-pain-pill-database/bulk/pharmacy/AL-AT9793945.csv,AL,MADISON
34.7034079,-86.5931381,1,89,1089,AL,FA0353639,AMPHARM OF ALABAMA,3054 LEEMAN FERRY ROAD SUITE J 1  HUNTSVILLE  AL 35801,223430,https://www.washingtonpost.com/wp-stat/dea-pain-pill-database/bulk/pharmacy/AL-FA0353639.csv,AL,MADISON
34.7034079,-86.5931381,1,89,1089,AL,FA0353615,AMPHARM HEALTH SERVICES OF ALABAMA,3054 LEEMAN FERRY ROAD SUITE J2  HUNTSVILLE  AL 35801,700,https://www.washingtonpost.com/wp-stat/dea-pain-pill-database/bulk/pharmacy/AL-FA0353615.csv,AL,MADISON
34.810893,-86.7140555,1,89,1089,AL,FM2109305,MONROVIA PHARMACY,1878 JEFF ROAD SUITE D  HUNTSVILLE  AL 35806,65400,https://www.washingtonpost.com/wp-stat/dea-pain-pill-database/bulk/pharmacy/AL-FM2109305.csv,AL,MADISON
34.8074085,-86.7486031,1,89,1089,AL,BP9311856,PHARMACY EXPRESS,7583 WALL TRIANA HWY SUITE B  MADISON  AL 35757,62180,https://www.washingtonpost.com/wp-stat/dea-pain-pill-database/bulk/pharmacy/AL-BP9311856.csv,AL,MADISON
34.7973586,-86.7481648,1,89,1089,AL,FF1215587,FRED'S PHARMACY #1944,7271 WALL TRIANA HWY  MADISON  AL 35757,91020,https://www.washingtonpost.com/wp-stat/dea-pain-pill-database/bulk/pharmacy/AL-FF1215587.csv,AL,MADISON
34.870313,-86.569425,1,89,1089,AL,BH4218372,RITE AID,12290 HWY 231 431 NORTH  MERIDIANVILLE  AL 35759,780910,https://www.washingtonpost.com/wp-stat/dea-pain-pill-database/bulk/pharmacy/AL-BH4218372.csv,AL,MADISON
34.8703206,-86.5722453,1,89,1089,AL,FA1220817,ALABAMA CVS PHARMACY,12275 HWY 231 431N  MERIDIANVILLE  AL 35759,608300,https://www.washingtonpost.com/wp-stat/dea-pain-pill-database/bulk/pharmacy/AL-FA1220817.csv,AL,MADISON
34.870313,-86.569425,1,89,1089,AL,FP0572114,PUBLIX ALABAMA,12290 HIGHWAY 231 431 N   MERIDIANVILLE  AL 35759,185900,https://www.washingtonpost.com/wp-stat/dea-pain-pill-database/bulk/pharmacy/AL-FP0572114.csv,AL,MADISON
34.8300229,-86.6373705,1,89,1089,AL,BT9269158,TOYOTA FAMILY PHARMACY,1 COTTONVALLEY DRIVE  HUNTSVILLE  AL 35810,29400,https://www.washingtonpost.com/wp-stat/dea-pain-pill-database/bulk/pharmacy/AL-BT9269158.csv,AL,MADISON
34.8300229,-86.6373705,1,89,1089,AL,FW1457779,WALGREENS,1 COTTONVALLEY DRIVE  HUNTSVILLE  AL 35810,63600,https://www.washingtonpost.com/wp-stat/dea-pain-pill-database/bulk/pharmacy/AL-FW1457779.csv,AL,MADISON
34.870313,-86.569425,1,89,1089,AL,BS9395840,SOUTHERN FAMILY MARKET #915,12290 US HIGHWAY 231 431 NORTH  MERIDIANVILLE  AL 35759,11000,https://www.washingtonpost.com/wp-stat/dea-pain-pill-database/bulk/pharmacy/AL-BS9395840.csv,AL,MADISON
34.8644907,-86.570752,1,89,1089,AL,BS7856872,STAR DISCOUNT,12078 HIGHWAY 231 431 NORTH  MERIDIANVILLE  AL 35759,4237560,https://www.washingtonpost.com/wp-stat/dea-pain-pill-database/bulk/pharmacy/AL-BS7856872.csv,AL,MADISON
34.754681,-86.731142,1,89,1089,AL,BU9870610,U-SAVE PHARMACY # 30,7559 HWY 72 WEST  MADISON  AL 35758,112280,https://www.washingtonpost.com/wp-stat/dea-pain-pill-database/bulk/pharmacy/AL-BU9870610.csv,AL,MADISON
34.7072699,-86.7435821,1,89,1089,AL,BK4041846,KROGER PHARMACY,300 HUGHES RD  MADISON  AL 35758,771110,https://www.washingtonpost.com/wp-stat/dea-pain-pill-database/bulk/pharmacy/AL-BK4041846.csv,AL,MADISON
33.5621694,-86.5189736,1,115,1115,AL,BW5383182,WAL-MART PHARMACY 10-0562,8551 WHITFIELD AVE   LEEDS  AL 35094,1674590,https://www.washingtonpost.com/wp-stat/dea-pain-pill-database/bulk/pharmacy/AL-BW5383182.csv,AL,JEFFERSON
34.7449995,-87.6564368,1,33,1033,AL,BV7037193,VILLAGE DRUG SHOP,1001 AVALON AVENUE  MUSCLE SHOALS  AL 35661,2592900,https://www.washingtonpost.com/wp-stat/dea-pain-pill-database/bulk/pharmacy/AL-BV7037193.csv,AL,COLBERT
34.7444993,-87.6507186,1,33,1033,AL,BS8951142,SHOALS PHARMACY,1404 E AVALON AVENUE  TUSCUMBIA  AL 35674,2501820,https://www.washingtonpost.com/wp-stat/dea-pain-pill-database/bulk/pharmacy/AL-BS8951142.csv,AL,COLBERT
34.7436997,-87.6398019,1,33,1033,AL,BA5101112,"AVALON PHARMACY, DBA: AVALON DISCOUNT DRUGS",2400 AVALON AVE  POB 2409  MUSCLE SHOALS  AL 35661,1641500,https://www.washingtonpost.com/wp-stat/dea-pain-pill-database/bulk/pharmacy/AL-BA5101112.csv,AL,COLBERT
34.7444993,-87.6507186,1,33,1033,AL,BS6223832,SHOALS PHARMACY,1404 EAST AVALON AVE  TUSCUMBIA  AL 35674,41500,https://www.washingtonpost.com/wp-stat/dea-pain-pill-database/bulk/pharmacy/AL-BS6223832.csv,AL,COLBERT
34.7845525,-87.5280675,1,33,1033,AL,BM4022000,STEVE'S PHARMACY,FORD CITY HOLDINGS INC 14479 COUNTY LINE ROAD  MUSCLE SHOALS  AL 35661,118800,https://www.washingtonpost.com/wp-stat/dea-pain-pill-database/bulk/pharmacy/AL-BM4022000.csv,AL,COLBERT
34.7845573,-87.5278106,1,33,1033,AL,FF2596116,FORD CITY PHARMACY,14490 COUNTY LINE ROAD SUITE B  MUSCLE SHOALS  AL 35661,91340,https://www.washingtonpost.com/wp-stat/dea-pain-pill-database/bulk/pharmacy/AL-FF2596116.csv,AL,COLBERT
34.7845928,-87.529276,1,33,1033,AL,FS1992444,STEVE'S FORD CITY PHARMACY,14479 COUNTY LINE ROAD  MUSCLE SHOALS  AL 35661,10100,https://www.washingtonpost.com/wp-stat/dea-pain-pill-database/bulk/pharmacy/AL-FS1992444.csv,AL,COLBERT
34.6480011,-86.0293385,1,71,1071,AL,BF9339323,SOUTHERN FAMILY MARKET #134,1402 COUNTY PARK ROAD  SCOTTSBORO  AL 35769,1069580,https://www.washingtonpost.com/wp-stat/dea-pain-pill-database/bulk/pharmacy/AL-BF9339323.csv,AL,JACKSON
34.6479724,-86.0294936,1,71,1071,AL,AK9145461,K MART PHARMACY #9639,22991 JOHN T REID PARKWAY  SCOTTSBORO  AL 35768,871890,https://www.washingtonpost.com/wp-stat/dea-pain-pill-database/bulk/pharmacy/AL-AK9145461.csv,AL,JACKSON
34.6695595,-86.007692,1,71,1071,AL,BW5383372,WAL-MART PHARMACY 10-0712,24833 JOHN T  REID PKWY   SCOTTSBORO  AL 35768,1512280,https://www.washingtonpost.com/wp-stat/dea-pain-pill-database/bulk/pharmacy/AL-BW5383372.csv,AL,JACKSON
34.6814312,-85.8481792,1,71,1071,AL,FP1128138,PISGAH FAMILY PHARMACY,6049 COUNTY ROAD 88  PISGAH  AL 35765,742910,https://www.washingtonpost.com/wp-stat/dea-pain-pill-database/bulk/pharmacy/AL-FP1128138.csv,AL,JACKSON
34.681419,-85.847953,1,71,1071,AL,FP0010037,PISGAH PHARMACY,PO BOX 9  MAIN STREET  PISGAH  AL 35765,207800,https://www.washingtonpost.com/wp-stat/dea-pain-pill-database/bulk/pharmacy/AL-FP0010037.csv,AL,JACKSON
34.6813911,-85.847961,1,71,1071,AL,AS0473784,PISAGH PHARMACY,STRINGER  JAMES  150 YARDS N OF P O  PISGAH  AL 35765,40170,https://www.washingtonpost.com/wp-stat/dea-pain-pill-database/bulk/pharmacy/AL-AS0473784.csv,AL,JACKSON
34.5837729,-85.9881608,1,71,1071,AL,BS2560882,SECTION PHARMACY,5295 TAMMY LITTLE DRIVE P  O  BOX 108  SECTION  AL 35771,2849940,https://www.washingtonpost.com/wp-stat/dea-pain-pill-database/bulk/pharmacy/AL-BS2560882.csv,AL,JACKSON
33.5282832,-85.9485427,1,121,1121,AL,BC8003662,CARTER'S FAMILY PHARMACY,PO BOX 1044 43323 ALABAMA HIGHWAY 21  MUNFORD  AL 36268,749430,https://www.washingtonpost.com/wp-stat/dea-pain-pill-database/bulk/pharmacy/AL-BC8003662.csv,AL,TALLADEGA
33.6022133,-86.1199239,1,121,1121,AL,BL5869194,LINCOLN PHARMACY INC,P O  BOX 200 99 MAGNOLIA STREET SOUTH  LINCOLN  AL 35096,2416690,https://www.washingtonpost.com/wp-stat/dea-pain-pill-database/bulk/pharmacy/AL-BL5869194.csv,AL,TALLADEGA
33.6037115,-86.1145023,1,121,1121,AL,FF0002814,FRED'S PHARMACY # 2439,47950 US HWY 78  LINCOLN  AL 35096,617600,https://www.washingtonpost.com/wp-stat/dea-pain-pill-database/bulk/pharmacy/AL-FF0002814.csv,AL,TALLADEGA
31.4324473,-86.9572849,1,35,1035,AL,BR5157145,ALABAMA CVS PHARMACY,210 W FRONT ST  EVERGREEN  AL 36401,3277330,https://www.washingtonpost.com/wp-stat/dea-pain-pill-database/bulk/pharmacy/AL-BR5157145.csv,AL,CONECUH
31.4301768,-86.9612353,1,35,1035,AL,BF8389238,FRED'S PHARMACY #1561,450 WEST FRONT STREET  EVERGREEN  AL 36401,2109920,https://www.washingtonpost.com/wp-stat/dea-pain-pill-database/bulk/pharmacy/AL-BF8389238.csv,AL,CONECUH
31.4310678,-86.9583606,1,35,1035,AL,FE2719500,EVERGREEN DISCOUNT PHARMACY,310 W  FRONT STREET  EVERGREEN  AL 36401,567220,https://www.washingtonpost.com/wp-stat/dea-pain-pill-database/bulk/pharmacy/AL-FE2719500.csv,AL,CONECUH
33.552497,-86.816942,1,73,1073,AL,AY0453807,YORKS PHARMACY,BERNARD C YORK OWNER 3008 N 27TH ST  BIRMINGHAM  AL 35207,2423840,https://www.washingtonpost.com/wp-stat/dea-pain-pill-database/bulk/pharmacy/AL-AY0453807.csv,AL,JEFFERSON
33.5528543,-86.819308,1,73,1073,AL,BP3327550,PAYLESS DRUGS,2512 31ST AVE NORTH  BIRMINGHAM  AL 35207,1856420,https://www.washingtonpost.com/wp-stat/dea-pain-pill-database/bulk/pharmacy/AL-BP3327550.csv,AL,JEFFERSON
33.5494903,-86.8332434,1,73,1073,AL,BA9579927,AMG PHARMACY INC.,3200 16TH STREET NORTH  BIRMINGHAM  AL 35207,1321700,https://www.washingtonpost.com/wp-stat/dea-pain-pill-database/bulk/pharmacy/AL-BA9579927.csv,AL,JEFFERSON
33.5528543,-86.819308,1,73,1073,AL,AA0457730,AMERICAN CAST IRON PIPE CO,1500 NORTH 31ST AVENUE  BIRMINGHAM  AL 35207,11000,https://www.washingtonpost.com/wp-stat/dea-pain-pill-database/bulk/pharmacy/AL-AA0457730.csv,AL,JEFFERSON
33.5404848,-86.7231087,1,73,1073,AL,AV7428483,VACCA DISCOUNT DRUG,7633 GEORGIA ROAD SOUTH  BIRMINGHAM  AL 35212,1137360,https://www.washingtonpost.com/wp-stat/dea-pain-pill-database/bulk/pharmacy/AL-AV7428483.csv,AL,JEFFERSON
33.5131612,-86.7808709,1,73,1073,AL,BR5157006,ALABAMA CVS PHARMACY,3303 CLAIRMONT AVENUE S  BIRMINGHAM  AL 35222,1291520,https://www.washingtonpost.com/wp-stat/dea-pain-pill-database/bulk/pharmacy/AL-BR5157006.csv,AL,JEFFERSON
33.4988496,-86.8434215,1,73,1073,AL,AA0474344,ALLEY DRUG STORES INC NO 3,633 TUSCALOOSA  BIRMINGHAM  AL 35211,7927190,https://www.washingtonpost.com/wp-stat/dea-pain-pill-database/bulk/pharmacy/AL-AA0474344.csv,AL,JEFFERSON
33.4997749,-86.855928,1,73,1073,AL,AG2328727,GIBSON DISCOUNT PHARMACY,1133 LOMB AVENUE SW  BIRMINGHAM  AL 35211,6854480,https://www.washingtonpost.com/wp-stat/dea-pain-pill-database/bulk/pharmacy/AL-AG2328727.csv,AL,JEFFERSON
33.5003298,-86.844857,1,73,1073,AL,BW8061210,WALGREENS,668 LOMB AVENUE SW  BIRMINGHAM  AL 35211,2002630,https://www.washingtonpost.com/wp-stat/dea-pain-pill-database/bulk/pharmacy/AL-BW8061210.csv,AL,JEFFERSON
33.5001664,-86.8431708,1,73,1073,AL,BR5156799,ALABAMA CVS PHARMACY,632 TUSCALOOSA AVENUE  BIRMINGHAM  AL 35211,1118400,https://www.washingtonpost.com/wp-stat/dea-pain-pill-database/bulk/pharmacy/AL-BR5156799.csv,AL,JEFFERSON
33.4985437,-86.8455284,1,73,1073,AL,BG5508102,GRIFFIN PHARMACY PRINCETON,817 PRINCETON AVE SW SUITE 107  BIRMINGHAM  AL 35211,1080430,https://www.washingtonpost.com/wp-stat/dea-pain-pill-database/bulk/pharmacy/AL-BG5508102.csv,AL,JEFFERSON
33.498957,-86.847845,1,73,1073,AL,FB2864595,BAPTIST HEALTH SYSTEM PHARMACY,817 PRINCETON AVE SW POB III  SUITE 107 A  BIRMINGHAM  AL 35211,15900,https://www.washingtonpost.com/wp-stat/dea-pain-pill-database/bulk/pharmacy/AL-FB2864595.csv,AL,JEFFERSON
33.499022,-86.8484637,1,73,1073,AL,FS2798342,SWC PHARMACY,832 PRINCETON AVENUE SW  BIRMINGHAM  AL 35211,53200,https://www.washingtonpost.com/wp-stat/dea-pain-pill-database/bulk/pharmacy/AL-FS2798342.csv,AL,JEFFERSON
33.4711883,-86.8252896,1,73,1073,AL,BR5156232,ALABAMA CVS PHARMACY,418 WEST VALLEY AVE  HOMEWOOD  AL 35209,2306430,https://www.washingtonpost.com/wp-stat/dea-pain-pill-database/bulk/pharmacy/AL-BR5156232.csv,AL,JEFFERSON
33.470755,-86.8236543,1,73,1073,AL,BW6926680,WALGREENS,101 GREEN SPRINGS HWY  BIRMINGHAM  AL 35209,1742400,https://www.washingtonpost.com/wp-stat/dea-pain-pill-database/bulk/pharmacy/AL-BW6926680.csv,AL,JEFFERSON
33.4679023,-86.8216418,1,73,1073,AL,FW0226123,WAL-MART PHARMACY 10-4504,312 PALISADES BOULEVARD  BIRMINGHAM  AL 35209,354200,https://www.washingtonpost.com/wp-stat/dea-pain-pill-database/bulk/pharmacy/AL-FW0226123.csv,AL,JEFFERSON
33.4655281,-86.8238595,1,73,1073,AL,AS0471970,K-MART PHARMACY #4817,K MART CORPORATION 230 GREEN SPRINGS RD  HOMEWOOD  AL 35209,404380,https://www.washingtonpost.com/wp-stat/dea-pain-pill-database/bulk/pharmacy/AL-AS0471970.csv,AL,JEFFERSON
33.4660866,-86.8241913,1,73,1073,AL,BD5662855,"DRUGS FOR LESS, #1781",234 GREENSPRINGS HWY  HOMEWOOD  AL 35209,128100,https://www.washingtonpost.com/wp-stat/dea-pain-pill-database/bulk/pharmacy/AL-BD5662855.csv,AL,JEFFERSON
33.1277315,-87.5501311,1,125,1125,AL,BL7461938,ALABAMA CVS PHARMACY,8700 HWY 69 SOUTH  TUSCALOOSA  AL 35405,1311060,https://www.washingtonpost.com/wp-stat/dea-pain-pill-database/bulk/pharmacy/AL-BL7461938.csv,AL,TUSCALOOSA
33.1361288,-87.5460099,1,125,1125,AL,BD6538233,DUNKIN'S PHARMACY,7700 HIGHWAY 69 SOUTH SUITE A  TUSCALOOSA  AL 35405,1052500,https://www.washingtonpost.com/wp-stat/dea-pain-pill-database/bulk/pharmacy/AL-BD6538233.csv,AL,TUSCALOOSA
33.1179972,-87.5531051,1,125,1125,AL,BW7300724,WINN-DIXIE PHARMACY #479,9750 HIGHWAY 69 SOUTH  TUSCALOOSA  AL 35405,708070,https://www.washingtonpost.com/wp-stat/dea-pain-pill-database/bulk/pharmacy/AL-BW7300724.csv,AL,TUSCALOOSA
33.1447211,-87.5455346,1,125,1125,AL,BH4422313,RITE AID,617 BEAR CREEK ROAD  TUSCALOOSA  AL 35405,524720,https://www.washingtonpost.com/wp-stat/dea-pain-pill-database/bulk/pharmacy/AL-BH4422313.csv,AL,TUSCALOOSA
33.1230851,-87.5527961,1,125,1125,AL,FP1197551,PUBLIX ALABAMA,1101 SOUTHVIEW LANE  TUSCALOOSA  AL 35405,312100,https://www.washingtonpost.com/wp-stat/dea-pain-pill-database/bulk/pharmacy/AL-FP1197551.csv,AL,TUSCALOOSA
33.1361288,-87.5460099,1,125,1125,AL,FD3471276,"DUTCH PHARMACIES, DBA DUNKIN'S PHARMACY",7700 HWY 69 SOUTH SUITE A  TUSCALOOSA  AL 35405,60400,https://www.washingtonpost.com/wp-stat/dea-pain-pill-database/bulk/pharmacy/AL-FD3471276.csv,AL,TUSCALOOSA
